,BUS_PROF_NAME,FULL_ADDRESS,LICENSES,LIC_STATUS,ISSUE_DATE,END_DATE,ADDRESS_ID,ADDRESS_LINE1,CITY,STATE,ZIP,COUNCIL_DIST,POLICE_DIST,CENSUS_TRACT,X_COORD,Y_COORD,GLOBALID,NEIGHBORHOOD,ZONE_DISTRICT,x,y,lon,lat
2353,COST PLUS WORLD MARKET,8601 W CROSS DR UNIT CP,LIQUOR - STORE,LICENSE ISSUED - ACTIVE,2/18/2026 9:47:22 AM,4/21/2027 12:00:00 AM,32733059.0,8601 W Cross Dr Unit CP,Denver,CO,0,2,4.0,12010.0,3114335.0,1649458.0,eddd4d1f-99c0-46b2-b072-4f2af3d9a76d,Marston,B-4,3114335.00013439,1649458.00009304,-105.09415231198841,39.615852329672485
2358,L&C LIQUORS,8100 W CRESTLINE AVE UNIT A-18,LIQUOR - STORE,LICENSE ISSUED - ACTIVE,10/31/2025 10:58:22 AM,12/14/2026 12:00:00 AM,264317.0,8100 W Crestline Ave Unit A18,Denver,CO,80123,2,4.0,12010.0,3115317.0,1650209.0,8a09d97d-fbed-4d26-a721-a4200f27e2bc,Marston,B-4,3115317.00013889,1650208.99990338,-105.09065460424475,39.617901964282645
2370,MARTINI MARTINE LLC,8555 W BELLEVIEW AVE STE A03,LIQUOR - TASTINGS,LICENSE ISSUED - ACTIVE,6/16/2025 12:00:00 AM,6/16/2026 12:00:00 AM,270011.0,8555 W Belleview Ave Ste A03,Denver,CO,0,2,4.0,12014.0,3114424.0,1652660.0,5911c82c-d94b-450f-bdd7-9a39dd7fe1c1,Marston,B-2,3114423.9999564,1652659.99992263,-105.09378557731242,39.624641723427885
2380,BELLEVIEW WINE AND SPIRITS,7795 E BELLEVIEW 3,LIQUOR - STORE,LICENSE ISSUED - ACTIVE,2/24/2026 8:36:29 AM,2/12/2027 12:00:00 AM,32690148.0,7795 E Belleview Ave Unit 3,Denver,CO,0,4,3.0,6804.0,3169520.0,1652956.0,6710414d-cbc7-4a3a-9371-91cb04db16ef,Hampden South,B-8,3169520.0000004,1652955.9999868,-104.89818816756537,39.62461516392898
2386,VILLAGE WEST LIQUOR,8555 W BELLEVIEW AVE SUITE A03,LIQUOR - STORE,LICENSE ISSUED - ACTIVE,6/3/2025 10:24:42 AM,5/20/2026 12:00:00 AM,155994.0,8555 W Belleview Ave,Denver,CO,0,2,4.0,12014.0,3114526.0,1653012.0,59297ab8-88d5-4193-ac3d-078aeed9e791,Marston,B-2,3114526.00008048,1653011.9998748,-105.09341788081355,39.6256068185597
2427,SAM'S CLUB #6635,4827 S WADSWORTH WAY ,LIQUOR - STORE,LICENSE ISSUED - ACTIVE,7/17/2025 1:49:17 PM,8/24/2026 12:00:00 AM,156218.0,4827 S Wadsworth Way,Denver,CO,80123,2,4.0,12014.0,3115995.0,1654447.0,e6e70728-31f7-407e-962b-b8c57e175be3,Marston,B-4,3115995.00009523,1654446.99995755,-105.0881797179527,39.62952816467763
2461,WEST QUINCY WINES AND SPIRITS,3704 - 3706 W QUINCY AVE ,LIQUOR - STORE,LICENSE ISSUED - ACTIVE,7/14/2025 12:37:59 PM,9/6/2026 12:00:00 AM,172817.0,3706 W Quincy Ave,Denver,CO,0,2,4.0,5503.0,3130719.0,1657676.0,e19ef265-cbc5-4fdb-a977-d87528498910,Fort Logan,S-MX-2,3130718.99984665,1657676.00006121,-105.03584697802495,39.638197838221934
2464,GOLDSMITH DISCOUNT LIQUOR,8000 E QUINCY AVE SUITE 2100&2300,LIQUOR - STORE,LICENSE ISSUED - ACTIVE,2/26/2026 7:50:41 AM,3/29/2027 12:00:00 AM,221147.0,8000 E Quincy Ave,Denver,CO,0,4,3.0,6809.0,3169836.0,1657728.0,ecbbd726-663a-4c90-bb8c-9e1a10028e38,Hampden South,B-3,3169836.00002456,1657727.99995722,-104.89695391625459,39.6377098310637
2487,SOUTHMOOR WINE AND SPIRITS,3533 S MONACO PKWY ,LIQUOR - STORE,LICENSE ISSUED - ACTIVE,2/24/2026 1:43:44 PM,3/6/2027 12:00:00 AM,250831.0,3533 S Monaco Street Pkwy,Denver,CO,0,4,3.0,6809.0,3165130.0,1662910.0,8d75450c-c599-41f6-805d-fc93920198d8,Hampden South,S-MX-5A,3165129.99992214,1662910.00009188,-104.91354452134684,39.65202033412261
2492,DENVER LIQUOR GALAXY,8970 E HAMPDEN AVE ,LIQUOR - STORE,LICENSE ISSUED - ACTIVE,7/1/2025 7:47:11 PM,9/2/2026 12:00:00 AM,364872.0,8970 E Hampden Ave,Denver,CO,0,4,3.0,6810.0,3173822.0,1662963.0,ee020d76-3939-40c0-a092-ec9b33426631,Hampden South,S-MX-5A,3173821.99992657,1662962.99998589,-104.88267472640544,39.652007736997284
2503,"TWIN CREEKS QUAD SISTERS, INC",8970 E HAMPDEN AVE ,LIQUOR - TASTINGS,LICENSE ISSUED - ACTIVE,7/9/2025 12:00:00 AM,7/9/2026 12:00:00 AM,364872.0,8970 E Hampden Ave,Denver,CO,0,4,3.0,6810.0,3173822.0,1662963.0,dbecf47e-8bcb-4174-8ece-51b4542ad54a,Hampden South,S-MX-5A,3173821.99992657,1662962.99998589,-104.88267472640544,39.652007736997284
2546,DISTILLERY LIQUORS,7195 E HAMPDEN AVE ,LIQUOR - STORE,LICENSE ISSUED - ACTIVE,12/3/2025 10:23:35 AM,2/27/2027 12:00:00 AM,145447.0,7195 E Hampden Ave,Denver,CO,80224,4,3.0,6812.0,3167536.0,1663473.0,838db3bf-a8bc-481f-9154-03447a10855b,Hampden,S-MX-3A,3167536.0000314,1663472.99995013,-104.90498681295283,39.65352295921418
2558,HAMPDEN LIQUOR,10017 E HAMPDEN AVE ,LIQUOR - STORE,LICENSE ISSUED - ACTIVE,8/8/2025 9:42:27 AM,10/17/2026 12:00:00 AM,181902.0,10017 E Hampden Ave,Denver,CO,80231,4,3.0,6814.0,3177137.0,1663520.0,7dfbd828-c6df-4506-afd6-9ba39e04fe3c,Hampden,S-MX-3A,3177136.99985823,1663519.99985613,-104.87088824622049,39.65347440593094
2576,BEAR VALLEY WINE & SPIRITS,3100 S SHERIDAN BLVD UNIT E & F,LIQUOR - STORE,LICENSE ISSUED - ACTIVE,4/1/2026 10:57:30 AM,6/23/2027 12:00:00 AM,175532.0,3100 S Sheridan Blvd,Denver,CO,0,2,4.0,4801.0,3125925.0,1663633.0,8f4e66f6-0a7c-45f8-927a-3e71203d92b7,Harvey Park South,S-CC-3X,3125924.99992023,1663632.99995822,-105.05276495608243,39.65461748760229
2601,ABC LIQUOR,5600 W DARTMOUTH 106,LIQUOR - STORE,LICENSE ISSUED - ACTIVE,10/28/2025 11:07:33 AM,1/26/2027 12:00:00 AM,270082.0,5600 W Dartmouth Ave Unit 106,Denver,CO,80227,2,4.0,11902.0,3124905.0,1663927.0,4516e779-bfe3-4b80-9841-44306d4dbe83,Bear Valley,S-CC-3X,3124904.99999173,1663927.00002638,-105.05638242968179,39.65543832779557
2602,OLIO CORP,3100 S SHERIDAN BLVD # 6-F,LIQUOR - TASTINGS,LICENSE ISSUED - ACTIVE,3/2/2026 12:00:00 AM,3/2/2027 12:00:00 AM,177368.0,3100 S Sheridan Blvd Bldg 6 # F,Denver,CO,0,2,4.0,4801.0,3127140.0,1664107.0,25119aee-dd77-4b28-97ec-b713b8315880,Harvey Park South,B-3,3127140.00011489,1664106.99999447,-105.04844146622575,39.65590224677479
2621,TAMARAC LIQUORS,3333 S TAMARAC UNIT O,LIQUOR - STORE,LICENSE ISSUED - ACTIVE,9/19/2025 10:27:41 AM,10/27/2026 12:00:00 AM,270164.0,3333 S Tamarac Dr Unit O,Denver,CO,80231,4,3.0,6811.0,3168712.0,1664509.0,ba0d895b-4153-43be-acbd-98f4b64dd3ee,Hampden,S-MX-5A,3168711.99997598,1664508.99984664,-104.90078603738833,39.65634581510367
2641,FAIRWAY LIQUORS,10890 E DARTMOUTH AVE UNIT 14,LIQUOR - STORE,LICENSE ISSUED - ACTIVE,12/1/2025 8:59:51 AM,2/14/2027 12:00:00 AM,270060.0,10890 E Dartmouth Ave Unit 14,Denver,CO,0,4,3.0,7006.0,3180055.0,1665851.0,30d323be-d5f4-4e4c-90a7-12f46d958b87,Kennedy,B-3,3180054.99992773,1665851.00011538,-104.86046687010732,39.659817622543784
2654,FIRST LIQUORS,2960 S FEDERAL 6,LIQUOR - STORE,LICENSE ISSUED - ACTIVE,1/21/2026 8:03:51 AM,4/14/2027 12:00:00 AM,361338.0,2960 S Federal Blvd Unit 6,Denver,CO,80236,2,4.0,5400.0,3133812.0,1666513.0,b9d58bf8-b424-4ca9-afde-ea378ac8db8f,College View - South Platte,PUD,3133811.99989423,1666513.00010371,-105.0247004799959,39.66241392183886
2669,WALGREEN CO,2870 S COLORADO BLVD ,LIQUOR - TASTINGS,LICENSE ISSUED - ACTIVE,1/9/2026 12:00:00 AM,1/9/2027 12:00:00 AM,181316.0,2870 S Colorado Blvd,Denver,CO,0,4,3.0,4003.0,3157646.0,1667382.0,17a6ac95-7037-4cb0-8d12-1ebea38828da,University Hills,S-MX-3,3157646.00012639,1667382.00000614,-104.94002519267181,39.66442672457739
2673,SIR FREDERICKS LIQUORS,2784 S WADSWORTH BLVD ,LIQUOR - STORE,LICENSE ISSUED - ACTIVE,1/7/2026 12:28:05 PM,2/14/2027 12:00:00 AM,182439.0,2784 S Wadsworth Blvd,Denver,CO,80227,2,4.0,11903.0,3118032.0,1667721.0,c0a6d1eb-ab52-4671-956e-af4fae9feabb,Bear Valley,B-2,3118031.99995823,1667720.99998429,-105.08073030511265,39.665943491866244
2679,E&S LIQUORS,6460 E YALE UNIT E30,LIQUOR - STORE,LICENSE ISSUED - ACTIVE,12/28/2025 11:34:35 PM,12/21/2026 12:00:00 AM,270174.0,6460 E Yale Ave Unit E30,Denver,CO,0,4,3.0,6812.0,3164962.0,1668014.0,99bce2a2-e4c1-4b45-8437-e6013cebd053,Hampden,B-3,3164961.99993007,1668014.00005446,-104.91402423364002,39.66603504338454
2743,HARVEY PARK LIQUOR,2418 S FEDERAL BLVD ,LIQUOR - STORE,LICENSE ISSUED - ACTIVE,4/15/2025 2:13:51 PM,6/25/2026 12:00:00 AM,117902.0,2418 S Federal Blvd,Denver,CO,80219,2,4.0,5400.0,3133801.0,1670309.0,79dbfba9-07b1-46f9-8147-1af5d8736416,College View - South Platte,S-MX-3,3133800.99991623,1670309.00005764,-105.0246690033116,39.672835075324365
2760,LITTLES LIQUORS,2390 S DOWNING ST ,LIQUOR - STORE,LICENSE ISSUED - ACTIVE,5/24/2025 7:19:11 PM,7/24/2026 12:00:00 AM,,,,,80210,6,3.0,3004.0,3148285.0,1670546.0,07103502-fd7c-4ec5-9c0d-9ad47f7101bf,University,E-MS-2,3148285.00014764,1670545.99991171,-104.9732104886996,39.67326638915297
2770,LITTLES LIQUORS INC,2390 S DOWNING ST ,LIQUOR - TASTINGS,LICENSE ISSUED - ACTIVE,7/1/2025 12:00:00 AM,7/1/2026 12:00:00 AM,245640.0,2390 S Downing St,Denver,CO,80210,6,3.0,3004.0,3148285.0,1670546.0,fd5d7f73-25fb-4c44-9433-6d8c0be72e80,University,E-MS-2,3148285.00014764,1670545.99991171,-104.9732104886996,39.67326638915297
2797,K LIQUORS,2215 S SHERIDAN BLVD ,LIQUOR - STORE,LICENSE ISSUED - ACTIVE,1/23/2026 12:15:29 PM,1/12/2027 12:00:00 AM,59369.0,2215 S Sheridan Blvd,Denver,CO,80227,2,4.0,4700.0,3125571.0,1671099.0,42798950-a55b-4679-b823-5ad61ceff2cb,Harvey Park,S-CC-3X,3125570.99997206,1671099.00011805,-105.05389199242389,39.675118407367606
2800,REX LIQUOR,2294 S BROADWAY ,LIQUOR - STORE,LICENSE ISSUED - ACTIVE,3/7/2026 10:21:14 PM,4/4/2027 12:00:00 AM,261599.0,2294 S Broadway,Denver,CO,80210,7,3.0,3002.0,3144297.0,1671164.0,ee03af4b-4f1e-4853-9d51-b3330719e9fb,Rosedale,U-MS-3,3144296.99992156,1671163.99998805,-104.987365355491,39.67502558187594
2853,MONACO LIQUOR WINE AND SPIRITS,2243 S MONACO 111,LIQUOR - STORE,LICENSE ISSUED - ACTIVE,11/26/2025 7:24:57 AM,2/8/2027 12:00:00 AM,460405.0,2243 S Monaco Street Pkwy Ste 111,Denver,CO,0,4,3.0,6901.0,3164791.0,1671794.0,db2a24ea-f22f-4f60-a873-283816f64ca8,Goldsmith,S-MX-5A,3164790.99994397,1671794.00004038,-104.9145451103815,39.67641505492358
2903,HOLLY HILLS PLAZA LIQUOR,2120 S HOLLY ST STE 1 & 2,LIQUOR - STORE,LICENSE ISSUED - ACTIVE,9/24/2025 10:50:54 AM,8/26/2026 12:00:00 AM,360669.0,2120 S Holly St Ste 1,Denver,CO,0,4,3.0,6901.0,3162803.0,1672226.0,022f5f06-647a-4363-8685-491e605d19b6,Goldsmith,S-MX-3A,3162802.99998298,1672226.00016063,-104.9215979372964,39.677635953686874
2924,QUEEN LIQUOR,2426 W EVANS AVE ,LIQUOR - STORE,LICENSE ISSUED - ACTIVE,5/1/2025 12:07:51 PM,5/14/2026 12:00:00 AM,116481.0,2426 W Evans Ave,Denver,CO,0,2,4.0,5400.0,3136069.0,1672361.0,68e17eb6-93ac-4829-a337-878314675627,College View - South Platte,S-CC-3,3136068.9999734,1672360.99989063,-105.01657324277723,39.67843547035954
2931,MORGAN'S LIQUOR,1200 E EVANS AVE ,LIQUOR - STORE,LICENSE ISSUED - ACTIVE,3/12/2025 7:59:54 AM,6/25/2026 12:00:00 AM,261597.0,1200 E Evans Ave,Denver,CO,80210,6,3.0,3004.0,3148287.0,1672376.0,ea19538a-7e27-4fea-9967-5432b97c8ef0,University,U-MS-3,3148287.00014365,1672375.99986063,-104.97316568275197,39.67829014760517
2934,"FRESH BEGINNING, LLC",1200 E EVANS AVE ,LIQUOR - TASTINGS,LICENSE ISSUED - ACTIVE,11/25/2025 12:00:00 AM,11/25/2026 12:00:00 AM,261597.0,1200 E Evans Ave,Denver,CO,80210,6,3.0,3004.0,3148287.0,1672376.0,e589c4b3-bb56-4d05-a052-e5993804e152,University,U-MS-3,3148287.00014365,1672375.99986063,-104.97316568275197,39.67829014760517
2968,TOTAL WINE SPIRITS BEER & MORE,3905 E EVANS AVE ,LIQUOR - STORE,LICENSE ISSUED - ACTIVE,10/30/2025 11:41:57 AM,11/18/2026 12:00:00 AM,240276.0,3905 E Evans Ave,Denver,CO,80210,6,3.0,4005.0,3156974.0,1672569.0,7981f1aa-457d-4fb5-bb1a-a0cd7b694d5b,University Park,R-MU-30,3156974.00015806,1672569.0001308,-104.94229903826417,39.6786776275326
2975,H&N ENTERPRISE INC,3905 E EVANS AVE ,LIQUOR - TASTINGS,LICENSE ISSUED - ACTIVE,5/14/2025 12:00:00 AM,5/14/2026 12:00:00 AM,240276.0,3905 E Evans Ave,Denver,CO,80210,6,3.0,4005.0,3156974.0,1672569.0,8521cf98-2cf1-4ccb-86c4-31a32758a51f,University Park,R-MU-30,3156974.00015806,1672569.0001308,-104.94229903826417,39.6786776275326
2977,PATIO LIQUOR,1971 W EVANS AVE ,LIQUOR - STORE,LICENSE ISSUED - ACTIVE,9/16/2025 11:52:09 AM,7/14/2026 12:00:00 AM,533640.0,1971 W Evans Ave,Denver,CO,0,2,4.0,5400.0,3137702.0,1672572.0,24c7a9cd-dd46-4f0f-ab12-268f1cceb049,College View - South Platte,S-CC-3,3137701.99998823,1672572.0001248,-105.01076758506171,39.67899071852446
3020,SOBO LIQUOR,2035 S BROADWAY UNIT B,LIQUOR - STORE,LICENSE ISSUED - ACTIVE,12/9/2025 9:49:55 AM,1/14/2027 12:00:00 AM,264297.0,2035 S Broadway Unit B,Denver,CO,80210,7,3.0,1403.0,3144121.0,1672863.0,00f80186-62c0-46c6-9382-a5d2f3169520,Overland,C-MS-5,3144120.99994548,1672862.99987088,-104.98795658562187,39.679692472026986
3049,MOUSA WINE & SPIRITS,1957 S FEDERAL BLVD ,LIQUOR - STORE,LICENSE ISSUED - ACTIVE,12/18/2025 9:22:38 AM,2/20/2027 12:00:00 AM,,,,,80219,2,4.0,4603.0,3133493.0,1673294.0,bd75a29f-acbe-43a2-aed7-89002bec2cf5,Harvey Park,S-CC-3X,3133492.99987607,1673293.99999313,-105.02570779777108,39.681034060384135
3071,E & E LIQUOR,1950 S HOLLY ST SUITE 1,LIQUOR - STORE,LICENSE ISSUED - ACTIVE,9/17/2025 11:25:51 PM,11/26/2026 12:00:00 AM,360457.0,1950 S Holly St Unit 1,Denver,CO,0,6,3.0,5200.0,3162773.0,1673627.0,b55467d8-6881-4f96-9063-e60e3d0230ab,Virginia Village,S-MX-3A,3162773.00004297,1673626.9999833,-104.92167283147181,39.68148254136476
3082,ALL-V LIQUORS,1840 S SHERIDAN BLVD ,LIQUOR - STORE,LICENSE ISSUED - ACTIVE,7/9/2025 2:04:01 PM,7/12/2026 12:00:00 AM,250458.0,1840 S Sheridan Blvd,Denver,CO,80232,2,4.0,4601.0,3125928.0,1673819.0,c99e2655-ee51-43a3-8661-e29cdd04f19c,Mar Lee,B-2,3125927.99991423,1673818.99992739,-105.05257613082281,39.68258066896515
3176,TRIPLE 7 LIQUOR,1685 S COLORADO BLVD UNIT B,LIQUOR - STORE,LICENSE ISSUED - ACTIVE,12/21/2025 6:44:16 PM,1/18/2027 12:00:00 AM,109437.0,1685 S Colorado Blvd # B,Denver,CO,0,6,3.0,3902.0,3157048.0,1675321.0,e0b18ada-84f6-4140-8e56-8f1fca6590ce,Cory - Merrill,PUD,3157048.00001006,1675320.99987613,-104.9419760796087,39.68623124866819
3201,CUT RATE LIQUOR,1537 S FEDERAL BLVD ,LIQUOR - STORE,LICENSE ISSUED - ACTIVE,2/19/2026 1:01:47 PM,5/16/2027 12:00:00 AM,227172.0,1537 S Federal Blvd,Denver,CO,0,2,4.0,4602.0,3133465.0,1676046.0,001057aa-03b8-4d5a-a238-8dcdf07f9b26,Mar Lee,S-CC-3X,3133464.99993207,1676046.00006655,-105.02575623612191,39.68858936444833
3220,V'S LIQUOR,1550 S FEDERAL BLVD SUITE R & S,LIQUOR - STORE,LICENSE ISSUED - ACTIVE,8/11/2025 1:50:36 PM,1/6/2027 12:00:00 AM,270107.0,1550 S Federal Blvd Unit R,Denver,CO,0,7,4.0,1402.0,3133874.0,1676137.0,da28e792-c0e3-4342-ad3b-67874bfb510f,Ruby Hill,E-MX-3,3133874.00009832,1676136.99988455,-105.02430126129916,39.68883331010716
3246,AB & P LIQUORS,1472 S BROADWAY ,LIQUOR - STORE,LICENSE ISSUED - ACTIVE,11/7/2024 2:20:35 PM,10/12/2026 12:00:00 AM,261702.0,1472 S Broadway,Denver,CO,0,7,3.0,3001.0,3144280.0,1676551.0,142503d6-aaa8-421e-a7dc-08e26104b3d6,Platt Park,U-MS-3,3144279.99995556,1676551.0000408,-104.98731774626624,39.68981443576974
3268,MARLEE WINE & SPIRITS,4317 W FLORIDA AVE ,LIQUOR - STORE,LICENSE ISSUED - ACTIVE,1/27/2026 6:44:58 AM,1/29/2027 12:00:00 AM,164903.0,4317 W Florida Ave,Denver,CO,0,3,4.0,4601.0,3128614.0,1676774.0,f1b98596-049e-4f10-8e4f-59d15c1f6550,Mar Lee,PUD,3128614.00011964,1676773.99992289,-105.04298007784031,39.69065615448696
3272,VIRGINIA VILLAGE LIQUORS,1455 S HOLLY ST ,LIQUOR - STORE,LICENSE ISSUED - ACTIVE,1/13/2026 9:34:58 AM,2/8/2027 12:00:00 AM,,,,,80222,6,3.0,5102.0,3162305.0,1676804.0,535412da-b6c4-449f-ace9-bdc57a92db3d,Virginia Village,S-MX-2A,3162304.99999472,1676803.99986288,-104.92326391634086,39.69021227803528
3275,TOM & JERRY'S LIQUOR STORE,1410 S SHERIDAN BLVD 3,LIQUOR - STORE,LICENSE ISSUED - ACTIVE,8/22/2025 8:30:47 PM,10/14/2026 12:00:00 AM,182855.0,1410 S Sheridan Blvd # 3,Denver,CO,0,3,4.0,4601.0,3125850.0,1676857.0,ab0fd638-e446-49fa-8daa-9ec9b45458f9,Mar Lee,B-2,3125850.00007023,1676857.00008497,-105.05280012643155,39.69092177204467
3324,DIVINO,1240 S BROADWAY ,LIQUOR - STORE,LICENSE ISSUED - ACTIVE,10/31/2025 7:12:53 AM,1/22/2027 12:00:00 AM,173939.0,1240 S Broadway,Denver,CO,0,7,3.0,3001.0,3144341.0,1678036.0,d55feab7-a1f3-4c97-92e1-9f8acc1beacd,Platt Park,U-MS-3,3144341.00016165,1678036.00002354,-104.98707120072193,39.69389015348579
3334,"DIVINO, LLC",1240 S BROADWAY ,LIQUOR - TASTINGS,LICENSE ISSUED - ACTIVE,1/12/2026 12:00:00 AM,1/12/2027 12:00:00 AM,173939.0,1240 S Broadway,Denver,CO,0,7,3.0,3001.0,3144341.0,1678036.0,af8b0f85-1935-48bd-861c-5b4902ccff1d,Platt Park,U-MS-3,3144341.00016165,1678036.00002354,-104.98707120072193,39.69389015348579
3365,CAMPUS LIQUOR,1100 S LOGAN ST ,LIQUOR - STORE,LICENSE ISSUED - ACTIVE,9/16/2025 9:35:53 PM,8/22/2026 12:00:00 AM,246561.0,1100 S Logan St,Denver,CO,0,7,3.0,3001.0,3145611.0,1678913.0,fbedf32e-9a15-4d12-874f-ffe2d462304e,Platt Park,U-MS-3,3145610.99991822,1678912.99990997,-104.98254048754663,39.6962779427329
3366,QUEBEC DISCOUNT LIQUOR,1050 S QUEBEC ST ,LIQUOR - STORE,LICENSE ISSUED - ACTIVE,7/1/2025 8:19:42 PM,8/22/2026 12:00:00 AM,,,,,80231,5,3.0,5002.0,3167958.0,1678919.0,61a89982-3b49-4dbd-98ce-be470054e7d7,Washington Virginia Vale,S-MX-2A,3167957.99984357,1678918.99989797,-104.90312768594437,39.695918162077916
3381,PEARL WINE AND SPIRITS,1093 S PEARL ST ,LIQUOR - STORE,LICENSE ISSUED - ACTIVE,1/12/2026 1:44:57 PM,1/13/2027 12:00:00 AM,261463.0,1093 S Pearl St,Denver,CO,80209,7,3.0,2901.0,3146139.0,1679122.0,3c8f003e-7c18-455f-9921-10e99613c6ab,Washington Park West,U-MS-2,3146138.99984647,1679122.00014813,-104.98065992294232,39.69684342350545
3390,ATHMAR LIQUORS,1777 W MISSISSIPPI AVE ,LIQUOR - STORE,LICENSE ISSUED - ACTIVE,6/23/2025 4:47:00 PM,7/25/2026 12:00:00 AM,222070.0,1777 W Mississippi Ave,Denver,CO,0,7,4.0,1302.0,3138208.0,1679155.0,81f971aa-f67b-4b25-a7b6-6ae3f45ceb9e,Athmar Park,E-MX-3A,3138207.99996048,1679155.00008214,-105.00884343915061,39.69705510566444
3414,HAPPY DAY LIQUORS,1929 W MISSISSIPPI AVE ,LIQUOR - STORE,LICENSE ISSUED - ACTIVE,9/29/2025 9:55:21 AM,11/16/2026 12:00:00 AM,187958.0,1929 W Mississippi Ave,Denver,CO,0,7,4.0,1302.0,3137364.0,1679292.0,81fb0ecd-2341-4214-b439-77740ba34132,Athmar Park,E-MX-3A,3137364.00000806,1679292.00013621,-105.01184012921736,39.697443690326125
3443,MIX LIQUORS,7150 LEETSDALE DR # 308,LIQUOR - STORE,LICENSE ISSUED - ACTIVE,6/17/2025 3:12:29 PM,8/5/2026 12:00:00 AM,180148.0,7150 Leetsdale Dr #308,Denver,CO,0,5,3.0,5002.0,3167311.0,1679680.0,33584a91-6c97-411f-a225-64bec7521213,Washington Virginia Vale,S-MX-3A,3167311.00015332,1679680.00001638,-104.90540916295485,39.69801891262466
3495,FEDERAL DISCOUNT LIQUORS,880 S FEDERAL BLVD ,LIQUOR - STORE,LICENSE ISSUED - ACTIVE,6/11/2025 4:15:20 PM,8/14/2026 12:00:00 AM,94996.0,880 S Federal Blvd,Denver,CO,80219,7,4.0,1301.0,3133745.0,1680502.0,5fbace4a-1bdf-4904-ad77-b7f6cbb89225,Athmar Park,E-MX-3,3133745.00002822,1680502.0000128,-105.02467848148149,39.70081809689436
3511,BONNIE BRAE LIQUOR,785 S UNIVERSITY BLVD ,LIQUOR - STORE,LICENSE ISSUED - ACTIVE,9/16/2025 11:45:53 AM,9/25/2026 12:00:00 AM,88878.0,785 S University Blvd,Denver,CO,0,6,3.0,3402.0,3152070.0,1681161.0,b864fe6e-7f1a-4911-8ced-8248f0d05615,Washington Park,U-MS-3,3152070.00012356,1681161.00000714,-104.95954006720339,39.702345948723334
3522,"BONNIE BRAE BEVERAGE, INC.",785 S UNIVERSITY BLVD ,LIQUOR - TASTINGS,LICENSE ISSUED - ACTIVE,10/7/2025 12:00:00 AM,10/7/2026 12:00:00 AM,88878.0,785 S University Blvd,Denver,CO,0,6,3.0,3402.0,3152070.0,1681161.0,c5c049f5-9c8a-45e8-8cad-68d4bc958421,Washington Park,U-MS-3,3152070.00012356,1681161.00000714,-104.95954006720339,39.702345948723334
3612,WESTWOOD LIQUORS,4005 MORRISON RD ,LIQUOR - STORE,LICENSE ISSUED - ACTIVE,7/17/2025 11:52:22 AM,8/7/2026 12:00:00 AM,222917.0,4005 Morrison Rd,Denver,CO,0,3,4.0,4501.0,3129417.0,1682520.0,906860b3-543c-4991-9503-c3b99e1eb865,Westwood,E-MX-3,3129417.00015406,1682519.9999138,-105.04002334755043,39.706419119791924
3626,DEL SOL LIQUORS LTD,506 S FEDERAL A,LIQUOR - STORE,LICENSE ISSUED - ACTIVE,11/18/2025 12:58:00 PM,12/11/2026 12:00:00 AM,93433.0,506 S Federal Blvd # A,Denver,CO,0,7,4.0,1301.0,3133691.0,1682753.0,93635272-6142-4ee5-90e6-6e122c629185,Athmar Park,E-MX-3,3133691.00013623,1682753.00010397,-105.02482854708822,39.706998367538986
3630,J PAD DISCOUNT LIQUOR,560 S HOLLY ST UNIT # 4,LIQUOR - STORE,LICENSE ISSUED - ACTIVE,10/28/2025 11:55:57 AM,1/8/2027 12:00:00 AM,,,,,80246,6,3.0,5001.0,3162846.0,1682831.0,be316b91-5894-4cb2-962c-6a2ceb1620f3,Washington Virginia Vale,S-MX-3A,3162845.99989697,1682830.99994797,-104.92120512903304,39.706748209920356
3675,ALAMEDA LIQUOR MART,9660 E ALAMEDA 103,LIQUOR - STORE,LICENSE ISSUED - ACTIVE,7/14/2025 2:42:52 PM,6/21/2026 12:00:00 AM,261283.0,9660 E Alameda Ave Unit 103,Denver,CO,0,5,3.0,7089.0,3175452.0,1683482.0,5e6844d3-61b1-4fb1-af6b-20b79c31df84,Windsor,B-4,3175451.9999474,1683481.99995829,-104.87638576789585,39.70830631318116
3739,BUNGALOW LIQUORS,3000 W ALAMEDA AVE ,LIQUOR - STORE,LICENSE ISSUED - ACTIVE,4/25/2025 11:48:51 AM,6/1/2026 12:00:00 AM,93604.0,3000 W Alameda Ave,Denver,CO,80219,3,4.0,4502.0,3133438.0,1684155.0,d06591f4-e254-4a61-9c4c-df2c7adb5336,Westwood,E-MX-3,3133437.99998607,1684154.99992463,-105.025701741153,39.71085079110028
3740,FRANK'S LIQUOR PLUS,3420 W ALAMEDA AVE ,LIQUOR - STORE,LICENSE ISSUED - ACTIVE,2/17/2026 6:49:38 AM,4/22/2027 12:00:00 AM,158174.0,3420 W Alameda Ave,Denver,CO,0,3,4.0,4502.0,3131770.0,1684164.0,5f3adcbe-64e1-4527-9118-e5daf291443f,Westwood,E-MX-3,3131770.00004123,1684163.99990663,-105.03163028740231,39.71089925535415
3806,BOOTLEGGER LIQUORS,2375 W ALAMEDA AVE ,LIQUOR - STORE,LICENSE ISSUED - ACTIVE,2/26/2026 10:43:50 AM,3/9/2027 12:00:00 AM,246281.0,2375 W Alameda Ave,Denver,CO,0,3,4.0,1000.0,3136316.0,1684416.0,52c9a139-a5fa-4f54-a77d-6abe990c3c90,Valverde,E-MX-3A,3136316.00013556,1684416.0000588,-105.0154672870225,39.71152559814416
3816,GREAT AMERICAN BEER STORE,1333 W ALAMEDA AVE ,LIQUOR - STORE,LICENSE ISSUED - ACTIVE,2/2/2026 7:21:25 AM,3/31/2027 12:00:00 AM,78509.0,1333 W Alameda Ave,Denver,CO,0,3,4.0,1000.0,3139325.0,1684427.0,dda7638b-c698-4523-aef1-baf8e05e1329,Valverde,E-MX-3A,3139325.00002307,1684427.00003681,-105.00477184877526,39.711511251808844
3824,LIQUOR LAND,167 W ALAMEDA A,LIQUOR - STORE,LICENSE ISSUED - ACTIVE,9/16/2025 9:23:42 PM,8/8/2026 12:00:00 AM,359597.0,167 W Alameda Ave Unit A,Denver,CO,0,7,3.0,2100.0,3143042.0,1684445.0,2c117a70-3c54-4730-8e08-8cd1fe680df1,Baker,U-MS-3,3143042.00013497,1684445.0000008,-104.99155975444248,39.71150429837205
3845,HOME LIQUORS,236 S BROADWAY ,LIQUOR - STORE,LICENSE ISSUED - ACTIVE,10/22/2025 2:16:58 PM,9/20/2026 12:00:00 AM,81373.0,236 S Broadway,Denver,CO,80209,7,3.0,2802.0,3144271.0,1684753.0,9f13fba4-c355-4f08-959a-ef8ed68b93fc,Speer,U-MS-3,3144270.99997357,1684753.00004096,-104.98718520895218,39.71233085871617
3891,COUNTRY CLUB LIQUORS,939 E CEDAR AVE ,LIQUOR - STORE,LICENSE ISSUED - ACTIVE,11/20/2025 10:42:00 AM,1/4/2027 12:00:00 AM,253822.0,939 E Cedar Ave,Denver,CO,80209-2304,7,3.0,2803.0,3147427.0,1685018.0,d8c35249-8925-4f84-940f-94b9d1b1c212,Speer,U-MS-2,3147426.99989514,1685017.99983905,-104.97596194289646,39.7130088957506
3896,PETE'S SPECIALTY WINES,5600 E CEDAR AVE ,LIQUOR - STORE,LICENSE ISSUED - ACTIVE,6/13/2025 1:49:26 PM,6/5/2026 12:00:00 AM,133426.0,5600 E Cedar Ave,Denver,CO,80224,5,3.0,4306.0,3162586.0,1685065.0,6170ea54-7cf9-40f1-80d0-2d200f14d959,Hilltop,E-MX-2X,3162586.0000889,1685065.00007313,-104.9220786964882,39.71288552710327
3928,SOOPER B LIQUORS,100 S BROADWAY ,LIQUOR - STORE,LICENSE ISSUED - ACTIVE,2/4/2026 12:23:10 PM,3/7/2027 12:00:00 AM,81301.0,100 S Broadway,Denver,CO,0,7,3.0,2802.0,3144265.0,1685559.0,91aa58ad-7f3e-4207-ac9e-6da5afbbe66a,Speer,U-MS-3,3144264.99998556,1685559.00006938,-104.98719036369994,39.71454358824203
3930,LOGAN LIQUORS,100 S LOGAN ST ,LIQUOR - STORE,LICENSE ISSUED - ACTIVE,9/19/2025 12:55:18 PM,10/22/2026 12:00:00 AM,,,,,80209,7,3.0,2802.0,3145610.0,1685566.0,febac93b-e7ec-43bc-af13-946024e20b5d,Speer,G-MS-3,3145609.99992023,1685566.00005539,-104.98240933904411,39.71454186492746
3979,BARNUM LIQUORS,1 S FEDERAL BLVD ,LIQUOR - STORE,LICENSE ISSUED - ACTIVE,1/29/2026 1:38:39 PM,2/11/2027 12:00:00 AM,77442.0,1 S Federal Blvd,Denver,CO,80219,3,4.0,903.0,3133491.0,1686175.0,c0303038-1b5b-4b95-9919-6f6ee9f1725d,Barnum,E-MX-3,3133490.99988006,1686175.00014971,-105.02547585586696,39.71639536148267
4038,CLARK'S MARKET,7059 E LOWRY 102,LIQUOR - STORE,LICENSE ISSUED - ACTIVE,11/19/2025 10:50:26 AM,12/18/2026 12:00:00 AM,32727044.0,7059 E Lowry Blvd Ste 102,Denver,CO,0,5,3.0,4306.0,3167057.0,1686570.0,32004814-5897-49b3-8d70-74b073348182,Lowry Field,C-MX-5,3167057.00000514,1686570.00001588,-104.90615174726953,39.71693788364922
4040,"LOWRY GROCERY, LLC",7059 E LOWRY BLVD STE 102,LIQUOR - TASTINGS,LICENSE ISSUED - ACTIVE,11/7/2025 12:00:00 AM,11/7/2026 12:00:00 AM,32727044.0,7059 E Lowry Blvd Ste 102,Denver,CO,0,5,3.0,4306.0,3167057.0,1686570.0,dbc20e33-9dfa-43be-ae97-4f26bfee66fd,Lowry Field,C-MX-5,3167057.00000514,1686570.00001588,-104.90615174726953,39.71693788364922
4141,NEW FIRST AVENUE LIQUORS,141 BROADWAY ,LIQUOR - STORE,LICENSE ISSUED - ACTIVE,1/26/2025 8:27:55 PM,6/11/2026 12:00:00 AM,79847.0,141 N Broadway,Denver,CO,0,7,3.0,2100.0,3144032.0,1687242.0,d9d51182-9d30-41a5-b9dc-75382e519dc4,Baker,U-MS-5,3144032.00012347,1687241.99998422,-104.98798485884225,39.71916737288239
4270,LOWRY LIQUORS,200 QUEBEC ST BLDG 200-101,LIQUOR - STORE,LICENSE ISSUED - ACTIVE,11/26/2024 1:48:18 PM,7/9/2026 12:00:00 AM,261585.0,200 N Quebec St Bldg 200 Unit 101,Denver,CO,0,5,3.0,4405.0,3168001.0,1687697.0,c1f61277-fcf4-4d9e-ab6d-9449f59e64ec,Lowry Field,B-3,3168001.00008565,1687697.00005847,-104.90276980911788,39.72001472029536
4309,THE VINEYARD INC,261 N FILLMORE ST ,LIQUOR - STORE,LICENSE ISSUED - ACTIVE,12/16/2025 2:26:09 PM,12/31/2026 12:00:00 AM,84892.0,261 N Fillmore St,Denver,CO,80206,5,3.0,3800.0,3153664.0,1687801.0,dddbe3f9-d85e-4d29-89ea-511a2c256e14,Cherry Creek,C-CCN-5,3153663.99988832,1687800.99985047,-104.95373319539202,39.72054792416565
4320,THE VINEYARD INC,261 N FILLMORE ST ,LIQUOR - TASTINGS,LICENSE ISSUED - ACTIVE,6/23/2025 12:00:00 AM,6/23/2026 12:00:00 AM,84892.0,261 N Fillmore St,Denver,CO,80206,5,3.0,3800.0,3153664.0,1687801.0,adcaa0d6-11d4-4084-b334-17ede0afe1c2,Cherry Creek,C-CCN-5,3153663.99988832,1687800.99985047,-104.95373319539202,39.72054792416565
4560,BAKER WINE AND SPIRITS,440 N BROADWAY ,LIQUOR - STORE,LICENSE ISSUED - ACTIVE,12/23/2025 7:39:32 AM,1/7/2027 12:00:00 AM,501962.0,440 N Broadway,Denver,CO,0,7,3.0,2802.0,3144204.0,1688747.0,a9dbaafd-fe90-4b30-b2fb-ba4c70f15c8e,Speer,B-8,3144204.00010756,1688746.99992697,-104.98734324325314,39.72329623417545
4628,KALAMATH LIQUOR,990 W 6TH AVE UNIT 3,LIQUOR - STORE,LICENSE ISSUED - ACTIVE,7/29/2025 11:41:22 AM,9/25/2026 12:00:00 AM,270100.0,990 W 6th Ave Unit 3,Denver,CO,80204,7,3.0,2100.0,3140766.0,1689518.0,12347e72-412b-4671-a89c-540d2d503fa8,Baker,B-4,3140766.00009382,1689518.00002538,-104.99955025889918,39.7254654073401
4639,THE WINE SELLER & SPIRITS TOO!,600 E 6TH AVE ,LIQUOR - STORE,LICENSE ISSUED - ACTIVE,12/2/2025 9:49:10 AM,12/13/2026 12:00:00 AM,246415.0,600 E 6th Ave,Denver,CO,80203,7,3.0,2801.0,3146313.0,1689560.0,774693f3-2ec8-45a3-a8d4-de26c3dc2b2a,Speer,U-MS-2,3146313.00015464,1689559.99994138,-104.97982919296095,39.72549516647966
4640,J&H LIQUORS INC,600 E 6TH AVE ,LIQUOR - TASTINGS,LICENSE ISSUED - ACTIVE,12/24/2025 12:00:00 AM,12/24/2026 12:00:00 AM,246415.0,600 E 6th Ave,Denver,CO,80203,7,3.0,2801.0,3146313.0,1689560.0,c08f4b27-5507-4445-91d8-0608b601165d,Speer,U-MS-2,3146313.00015464,1689559.99994138,-104.97982919296095,39.72549516647966
4641,JOY WINE AND SPIRITS,1302 E 6TH AVE ,LIQUOR - STORE,LICENSE ISSUED - ACTIVE,9/16/2025 1:15:45 PM,9/9/2026 12:00:00 AM,,,,,80218,5,3.0,3203.0,3148650.0,1689562.0,2aa122f7-1120-4d5b-87b6-7500bb52a169,Country Club,U-MX-2,3148650.00007381,1689561.99993739,-104.971520854161,39.72546362888476
4653,JOY PHARMACY INC,1302 E 6TH AVE ,LIQUOR - TASTINGS,LICENSE ISSUED - ACTIVE,8/7/2025 12:00:00 AM,8/7/2026 12:00:00 AM,176428.0,1302 E 6th Ave,Denver,CO,0,5,3.0,3203.0,3148650.0,1689562.0,9928fe86-53ee-4669-bf9b-d1f4290d3d81,Country Club,U-MX-2,3148650.00007381,1689561.99993739,-104.971520854161,39.72546362888476
4688,SPORTSMAN LIQUOR,610 PERRY ST ,LIQUOR - STORE,LICENSE ISSUED - ACTIVE,9/21/2025 7:16:36 PM,11/11/2026 12:00:00 AM,72326.0,610 N Perry St,Denver,CO,0,3,1.0,905.0,3129602.0,1689711.0,1649cf3d-925e-4df0-8d9a-9de737c9634c,Villa Park,E-MX-2X,3129602.00011215,1689710.99996747,-105.03923619926658,39.726157367180846
4721,TRADER JOE'S COMPANY,661 N LOGAN ST ,LIQUOR - TASTINGS,LICENSE ISSUED - ACTIVE,11/20/2025 12:00:00 AM,11/20/2026 12:00:00 AM,460324.0,661 N Logan St,Denver,CO,0,7,3.0,2801.0,3145547.0,1690020.0,037c071a-9f9f-4c06-8c29-7f0533170726,Speer,G-MX-3,3145547.00004622,1690020.00000563,-104.9825430963464,39.726769964511895
4789,LOWRY WINE & SPIRITS,727 QUEBEC ST ,LIQUOR - STORE,LICENSE ISSUED - ACTIVE,1/9/2025 11:33:08 AM,12/10/2026 12:00:00 AM,245880.0,727 N Quebec St,Denver,CO,0,5,2.0,4304.0,3167693.0,1690429.0,b6ba637d-e6ae-4f25-ba4e-bb0e8e47fe6d,Montclair,E-CC-3X,3167693.00004548,1690428.99984381,-104.90380095673966,39.72752010746455
4891,STATION LIQUOR,782 SHERIDAN BLVD ,LIQUOR - STORE,LICENSE ISSUED - ACTIVE,1/8/2026 6:26:15 AM,2/5/2027 12:00:00 AM,72592.0,782 N Sheridan Blvd,Denver,CO,0,3,1.0,904.0,3125762.0,1690742.0,bc188062-7ed2-4a77-8017-e8761ddd0fe8,Villa Park,C-MX-5,3125761.99991815,1690741.99987397,-105.05286998569478,39.72904034546428
4902,RIO GRANDE LIQUOR,1135 W 8TH AVE ,LIQUOR - STORE,LICENSE ISSUED - ACTIVE,2/28/2025 2:31:50 PM,4/9/2026 12:00:00 AM,184569.0,1135 W 8th Ave,Denver,CO,0,3,1.0,1900.0,3139947.0,1690849.0,8170a6e8-4dcd-44ac-a2b0-72610cfbad28,Lincoln Park,C-MS-5,3139947.00009139,1690848.99998805,-105.00243598371712,39.72913161175323
4909,WATSON'S WINE & SPIRITS,25 E 8TH AVE ,LIQUOR - STORE,LICENSE ISSUED - ACTIVE,6/5/2025 7:40:40 AM,5/28/2026 12:00:00 AM,,,,,80203,7,6.0,2702.0,3144390.0,1690900.0,c16bb739-d5ac-4211-bc0b-b8c3ec8995ea,Capitol Hill,D-GT,3144390.00006364,1690899.99988605,-104.9866387607287,39.729203752875975
4911,TRADER JOE'S #310,790 N COLORADO BLVD ,LIQUOR - STORE,LICENSE ISSUED - ACTIVE,11/25/2025 7:27:52 AM,12/5/2026 12:00:00 AM,391643.0,790 N Colorado Blvd,Denver,CO,0,5,2.0,4301.0,3157388.0,1690911.0,c6ccd5b7-83e6-4cc0-82f0-0c34119d2d45,Hale,PUD-G,3157387.99998623,1690910.99986404,-104.94042681860681,39.729023237667946
4922,TRADER JOE'S COMPANY,790 N COLORADO BLVD ,LIQUOR - TASTINGS,LICENSE ISSUED - ACTIVE,11/25/2025 12:00:00 AM,11/25/2026 12:00:00 AM,391643.0,790 N Colorado Blvd,Denver,CO,0,5,2.0,4301.0,3157388.0,1690911.0,05e34bd5-b68d-417c-b8d2-e55d255fd50e,Hale,PUD-G,3157387.99998623,1690910.99986404,-104.94042681860681,39.729023237667946
4931,EIGHTH AVE WINE & SPIRITS,4420 E 8TH AVE ,LIQUOR - STORE,LICENSE ISSUED - ACTIVE,6/23/2025 2:49:24 AM,7/30/2026 12:00:00 AM,235323.0,4420 E 8th Ave,Denver,CO,0,5,2.0,4301.0,3158755.0,1690952.0,40159134-bf7d-4db1-99ae-ce5a3c951f03,Hale,E-MS-2,3158754.9998769,1690952.00011013,-104.93556584178728,39.72911257535128
5019,CAPITOL HILL LIQUORS,1032 E 9TH AVE ,LIQUOR - STORE,LICENSE ISSUED - ACTIVE,2/26/2026 9:37:41 AM,4/23/2027 12:00:00 AM,246413.0,1032 E 9th Ave,Denver,CO,0,10,6.0,2702.0,3147859.0,1691320.0,8095bce1-bb87-47ad-b8dd-424147fe5f7a,Capitol Hill,G-MX-3,3147859.00001539,1691320.00003029,-104.97429678068019,39.730302271578076
5092,USA LIQUORS,900 FEDERAL BLVD ,LIQUOR - STORE,LICENSE ISSUED - ACTIVE,9/24/2025 11:02:58 AM,1/15/2027 12:00:00 AM,70508.0,900 N Federal Blvd,Denver,CO,80204,3,1.0,800.0,3133664.0,1691667.0,14b0276f-9b74-4f14-985f-7835a14559c3,Sun Valley,E-MX-3,3133663.99986215,1691666.99999246,-105.0247587723977,39.73146952982846
5105,JERSEY STREET LIQUORS,928 JERSEY ST ,LIQUOR - STORE,LICENSE ISSUED - ACTIVE,9/17/2025 1:19:59 PM,11/3/2026 12:00:00 AM,175578.0,928 N Jersey St,Denver,CO,0,5,2.0,4304.0,3163366.0,1691697.0,aa39792f-934f-4707-ab00-c30986b075eb,Montclair,E-MX-2,3163365.99984123,1691696.99993247,-104.91915549565857,39.73107794386409
5235,VILLA PARK LIQUORS,3455 W 10TH AVE ,LIQUOR - STORE,LICENSE ISSUED - ACTIVE,3/23/2026 10:10:59 AM,5/4/2027 12:00:00 AM,69856.0,3455 W 10th Ave,Denver,CO,0,3,1.0,905.0,3131496.0,1692266.0,093b9920-1e31-4b7a-a406-be09af794c95,Villa Park,E-MX-2X,3131495.99993306,1692266.0001068,-105.03245597998657,39.733144784153325
5283,SYRACUSE LIQUORS,1115 SYRACUSE ST ,LIQUOR - STORE,LICENSE ISSUED - ACTIVE,8/8/2025 8:38:53 AM,10/20/2026 12:00:00 AM,246477.0,1115 N Syracuse St,Denver,CO,0,8,2.0,4404.0,3168958.0,1692553.0,1b9e64ba-749b-4659-9c97-9a38d05646db,East Colfax,E-MX-3,3168958.00014015,1692552.99986088,-104.89925369619367,39.733327979454735
5288,7 ELEVEN STORE 13194A,1107 SANTA FE DR ,LIQUOR - STORE,LICENSE ISSUED - ACTIVE,7/15/2025 2:52:06 PM,7/31/2026 12:00:00 AM,68815.0,1107 N Santa Fe Dr,Denver,CO,80204,3,1.0,1800.0,3140929.0,1692612.0,d1a91466-c6b6-4c93-a1bc-ee602491de7c,Lincoln Park,C-MS-8,3140929.00009589,1692612.00007096,-104.9989101029697,39.733956566161424
5300,SKYLINE SPIRITS,939 E 11TH AVE ,LIQUOR - STORE,LICENSE ISSUED - ACTIVE,12/23/2025 10:57:13 PM,10/18/2026 12:00:00 AM,,,,,80218,10,6.0,2703.0,3147495.0,1692654.0,9adcc3c3-240f-4b9d-9eb2-5a907f7084a5,Capitol Hill,G-MS-3,3147495.00008723,1692653.99998696,-104.97556355059523,39.733970124829405
5339,GOLDEN TRIANGLE WINE & SPIRITS,1129 N BROADWAY ,LIQUOR - STORE,LICENSE ISSUED - ACTIVE,6/11/2025 1:19:07 PM,6/13/2026 12:00:00 AM,382897.0,1129 N Broadway,Denver,CO,0,10,6.0,2000.0,3144095.0,1692827.0,9aca3595-46d7-46d4-b63b-a427f0601aa0,Civic Center,D-GT,3144094.99999748,1692826.99996905,-104.98764893683172,39.73449830260535
5500,MR. B'S WINE & SPIRITS,360 W 13TH AVE ,LIQUOR - STORE,LICENSE ISSUED - ACTIVE,4/5/2026 6:33:20 PM,4/5/2027 12:00:00 AM,535142.0,360 W 13th Ave,Denver,CO,0,10,6.0,2000.0,3142729.0,1693626.0,5300b61b-fb17-41b5-9ab8-14f734d0ed87,Civic Center,D-GT,3142729.00010481,1693626.00001146,-104.99248997895536,39.736712754468215
5504,"LODO LIQUOR & WINE, LLC",360 W 13TH AVE ,LIQUOR - TASTINGS,LICENSE ISSUED - ACTIVE,5/5/2025 12:00:00 AM,5/5/2026 12:00:00 AM,535142.0,360 W 13th Ave,Denver,CO,0,10,6.0,2000.0,3142729.0,1693626.0,c1f3b4f4-7852-4d0e-b9e2-e8a92d3a3f1f,Civic Center,D-GT,3142729.00010481,1693626.00001146,-104.99248997895536,39.736712754468215
5528,HUGO'S COLORADO BEER AND SPIRITS,1205 E 13TH AVE UNIT C,LIQUOR - STORE,LICENSE ISSUED - ACTIVE,6/6/2025 10:45:15 AM,5/16/2026 12:00:00 AM,351642.0,1205 E 13th Ave,Denver,CO,0,10,6.0,3201.0,3148284.0,1693758.0,78f1e7d3-435e-4b59-baef-8d23757b6e88,Cheesman Park,G-MX-3,3148284.00014965,1693758.00007555,-104.97273544503997,39.73698826894377
5562,PLAZA DE SANTA FE LIQUORS,1355 SANTA FE DR SUITE 1,LIQUOR - STORE,LICENSE ISSUED - ACTIVE,9/24/2025 9:00:41 AM,11/20/2026 12:00:00 AM,,,,,80204,3,1.0,1800.0,3140863.0,1693949.0,03232b9e-91c2-4d7b-9c0f-c7e8c4c4af58,Lincoln Park,C-MX-8,3140862.9998998,1693949.00002164,-104.99911855960285,39.737627879234005
5661,MAYFAIR LIQUORS,1385 KRAMERIA ST ,LIQUOR - STORE,LICENSE ISSUED - ACTIVE,5/10/2025 10:20:58 PM,7/17/2026 12:00:00 AM,,,,,80220,5,2.0,4304.0,3163958.0,1694247.0,3b1cafac-0ceb-4421-b622-d33d7c4d56ec,Montclair,PUD,3163957.99996956,1694247.00008179,-104.91699252540563,39.73806772502099
5670,MAYFAIR LIQUORS INC,1385 N KRAMERIA ST ,LIQUOR - TASTINGS,LICENSE ISSUED - ACTIVE,4/28/2025 12:00:00 AM,4/28/2026 12:00:00 AM,166485.0,1385 N Krameria St,Denver,CO,0,5,2.0,4304.0,3163958.0,1694247.0,2bbf65f4-bb21-44fa-a17d-35a0e27b3dff,Montclair,PUD,3163957.99996956,1694247.00008179,-104.91699252540563,39.73806772502099
5671,MAYFAIR LIQUORS INC,1385 N KRAMERIA ST ,LIQUOR - TASTINGS,LICENSE ISSUED - ACTIVE,3/18/2026 12:00:00 AM,3/18/2027 12:00:00 AM,166485.0,1385 N Krameria St,Denver,CO,0,5,2.0,4304.0,3163958.0,1694247.0,d7423b0a-c3ab-465a-b2b7-dfcf2f7bc203,Montclair,PUD,3163957.99996956,1694247.00008179,-104.91699252540563,39.73806772502099
5797,TOBIN'S LIQUORS,4100 W COLFAX AVE ,LIQUOR - STORE,LICENSE ISSUED - ACTIVE,6/11/2025 4:02:56 PM,7/27/2026 12:00:00 AM,70707.0,4100 W Colfax Ave,Denver,CO,80204-1451,3,1.0,701.0,3129148.0,1694748.0,b31fa364-0258-4d49-a817-8d28570dde78,West Colfax,U-MS-5,3129148.0000359,1694748.00006405,-105.04075971763442,39.73999122819627
5966,JOHN'S LIQUORS,1816 E COLFAX AVE ,LIQUOR - STORE,LICENSE ISSUED - ACTIVE,10/14/2025 10:00:07 AM,11/18/2026 12:00:00 AM,176606.0,1816 E Colfax Ave,Denver,CO,0,10,6.0,3201.0,3150272.0,1694774.0,8103fe91-7a21-49b3-8c5f-5a70c4bcad67,Cheesman Park,G-MS-5,3150272.00011064,1694774.00001206,-104.96564547690407,39.73974548245254
5972,ARGONAUT WINE & LIQUOR STORE INC,760 E COLFAX AVE ,LIQUOR - STORE,LICENSE ISSUED - ACTIVE,10/15/2025 8:57:41 AM,12/31/2026 12:00:00 AM,237297.0,760 E Colfax Ave,Denver,CO,0,10,6.0,2703.0,3146795.0,1694778.0,456e3b12-0686-4643-ba94-18217eeea124,Capitol Hill,C-MS-8,3146794.99984682,1694778.00000405,-104.97800903869648,39.7398119575275
5985,ARGONAUT WINE AND LIQUOR STORE INC,760 E COLFAX AVE ,LIQUOR - TASTINGS,LICENSE ISSUED - ACTIVE,10/14/2025 12:00:00 AM,10/14/2026 12:00:00 AM,237297.0,760 E Colfax Ave,Denver,CO,0,10,6.0,2703.0,3146795.0,1694778.0,778817a3-0dda-496c-bf19-ea15dd4cbfc7,Capitol Hill,C-MS-8,3146794.99984682,1694778.00000405,-104.97800903869648,39.7398119575275
6019,DENVER DRUG & LIQUOR,400 E COLFAX AVE ,LIQUOR - STORE,LICENSE ISSUED - ACTIVE,12/17/2025 1:34:58 PM,1/4/2027 12:00:00 AM,66778.0,400 E Colfax Ave,Denver,CO,0,10,6.0,2701.0,3145640.0,1694807.0,c0513961-acab-4586-b720-9130c6676157,Capitol Hill,C-MS-8,3145639.99986023,1694806.99994604,-104.98211544658648,39.739909714428535
6022,ALADDIN LIQUORS,2032 E COLFAX AVE ,LIQUOR - STORE,LICENSE ISSUED - ACTIVE,3/5/2026 9:51:09 AM,3/29/2027 12:00:00 AM,246256.0,2032 E Colfax Ave,Denver,CO,80206,10,6.0,3202.0,3151118.0,1694810.0,38080704-3db5-4726-8175-1f1e5e615745,Cheesman Park,G-MS-5,3151118.00005907,1694809.99994005,-104.96263648541388,39.73983060959
6035,FAIRFAX WINE & SPIRITS,5100 E COLFAX AVE ,LIQUOR - STORE,LICENSE ISSUED - ACTIVE,7/10/2025 2:35:52 PM,7/19/2026 12:00:00 AM,128612.0,5100 E Colfax Ave,Denver,CO,0,5,2.0,4302.0,3160929.0,1694855.0,af58464d-acfd-4983-93fb-8bfeed65c96b,Hale,U-MS-3,3160929.00012206,1694854.99985005,-104.92774924111069,39.739789658212786
6046,KAROLIE CORP,5100 E COLFAX AVE ,LIQUOR - TASTINGS,LICENSE ISSUED - ACTIVE,11/14/2025 12:00:00 AM,11/14/2026 12:00:00 AM,128612.0,5100 E Colfax Ave,Denver,CO,0,5,2.0,4302.0,3160929.0,1694855.0,ac22e1ba-9856-439d-b26e-1dd9185f1bbf,Hale,U-MS-3,3160929.00012206,1694854.99985005,-104.92774924111069,39.739789658212786
6048,MONROE LIQUOR,3600 E COLFAX AVE ,LIQUOR - STORE,LICENSE ISSUED - ACTIVE,11/5/2025 1:39:12 PM,10/17/2026 12:00:00 AM,225273.0,3600 E Colfax Ave,Denver,CO,80206,10,2.0,3703.0,3156148.0,1694863.0,f6636b9e-9810-4c9c-90cd-d4960929928e,Congress Park,U-MS-3,3156147.99984156,1694863.00016212,-104.94474949511431,39.7398930671973
6075,CAPITOL LIQUOR,4600 E COLFAX AVE ,LIQUOR - STORE,LICENSE ISSUED - ACTIVE,9/12/2025 9:20:25 AM,8/16/2026 12:00:00 AM,246217.0,4600 E Colfax Ave,Denver,CO,0,5,2.0,4301.0,3159298.0,1694883.0,13ff64e9-5c2a-4865-a55a-2de905481bb5,Hale,U-MS-3,3159298.00010324,1694883.00012213,-104.93354817588987,39.73989458466024
6119,ZULA LIQUORS,5602 E COLFAX AVE ,LIQUOR - STORE,LICENSE ISSUED - ACTIVE,9/4/2025 11:31:36 PM,11/9/2026 12:00:00 AM,351798.0,5602 E Colfax Ave,Denver,CO,0,5,2.0,4304.0,3162506.0,1694926.0,2f0538f6-f87e-4270-92bb-d68529fcbbac,Montclair,U-MS-3,3162505.99992082,1694926.00003614,-104.92214009953443,39.73995716201918
6126,MARLEY LIQUOR STORE,7740 E COLFAX AVE UNIT 2,LIQUOR - STORE,LICENSE ISSUED - ACTIVE,4/18/2025 3:16:13 PM,5/26/2026 12:00:00 AM,363967.0,7740 E Colfax Ave Unit 2,Denver,CO,80220,8,2.0,4404.0,3169324.0,1694929.0,e149663f-71b8-4a6b-934f-0e47de19b16a,East Colfax,E-MS-3,3169324.00006431,1694929.00003013,-104.89789639577498,39.7398438451647
6137,DRINK'S LIQUOR,3615 W COLFAX AVE ,LIQUOR - STORE,LICENSE ISSUED - ACTIVE,6/4/2025 1:14:23 PM,5/27/2026 12:00:00 AM,246219.0,3615 W Colfax Ave,Denver,CO,80204,3,1.0,702.0,3130729.0,1694938.0,8c236776-b477-4573-90ff-3aca7f1cdff7,West Colfax,U-MS-3,3130729.00015473,1694938.00001213,-105.03513444405975,39.74049073919695
6153,PAUL'S LIQUOR,1131 E COLFAX AVE ,LIQUOR - STORE,LICENSE ISSUED - ACTIVE,4/1/2026 10:49:40 AM,5/5/2027 12:00:00 AM,261948.0,1131 E Colfax Ave,Denver,CO,0,10,6.0,3102.0,3148313.0,1694957.0,1490c175-b816-4922-964f-7e44d9e7e250,City Park West,C-MS-5,3148313.00009164,1694956.99997413,-104.97260758007134,39.74027927605482
6168,SCOOTER LIQUORS,1515 E COLFAX AVE ,LIQUOR - STORE,LICENSE ISSUED - ACTIVE,3/12/2026 10:23:42 AM,12/1/2026 12:00:00 AM,57712.0,1515 E Colfax Ave,Denver,CO,80218,10,6.0,3102.0,3149268.0,1694961.0,615dc99f-3798-4a5e-952c-8cceef476766,City Park West,C-MS-8,3149268.00015014,1694960.99996613,-104.96921164922657,39.740274988059454
6192,MD EAST COLFAX LIQUOR,8200 E COLFAX AVE ,LIQUOR - STORE,LICENSE ISSUED - ACTIVE,5/1/2025 11:57:57 AM,4/23/2026 12:00:00 AM,177482.0,8200 E Colfax Ave,Denver,CO,80220,8,2.0,4404.0,3170785.0,1694997.0,f6b52f4a-f990-47b7-bcdc-b00b8df82056,East Colfax,E-MS-5,3170785.00009505,1694996.99989413,-104.89269972557162,39.74000381908125
6201,JACOBS LIQUOR,8700 E COLFAX AVE ,LIQUOR - STORE,LICENSE ISSUED - ACTIVE,3/12/2026 10:32:02 AM,3/31/2027 12:00:00 AM,125093.0,8700 E Colfax Ave,Denver,CO,0,8,2.0,4404.0,3172424.0,1695010.0,969d1323-cc12-416c-a695-86bb4bb60c81,East Colfax,E-MS-5,3172424.0000979,1695009.99986812,-104.88687141306553,39.74000928371585
6227,BAYON LIQUORS,3101 E COLFAX AVE ,LIQUOR - STORE,LICENSE ISSUED - ACTIVE,3/9/2026 8:53:49 AM,3/18/2027 12:00:00 AM,58484.0,3101 E Colfax Ave,Denver,CO,0,10,2.0,3701.0,3154396.0,1695058.0,3a38a073-b5c6-4cb6-b8f4-c4905c6368d3,City Park,G-MS-3,3154396.00006473,1695058.00010021,-104.95097513105905,39.740457607133294
6246,B & B LIQUOR,7035 E COLFAX AVE ,LIQUOR - STORE,LICENSE ISSUED - ACTIVE,6/9/2025 7:43:14 PM,6/6/2026 12:00:00 AM,184422.0,7035 E Colfax Ave,Denver,CO,80220,8,2.0,4202.0,3167055.0,1695101.0,c7fdf3fe-5e92-45ca-bef6-98a9819b2536,South Park Hill,E-MS-3,3167055.00000915,1695101.00001422,-104.90596056108768,39.740357020099474
6323,JERRI'S TOBACCO SHOP & FINE WINES,1550 COURT PL ,LIQUOR - STORE,LICENSE ISSUED - ACTIVE,11/18/2025 12:02:16 PM,12/6/2026 12:00:00 AM,224503.0,1550 Court Pl,Denver,CO,0,10,6.0,1702.0,3143674.0,1695456.0,7d60a2a9-e0a9-4d13-972f-a084c2944ee7,CBD,D-C,3143673.99985524,1695455.99996038,-104.98909326326734,39.741721895302355
6327,DENVER TOBAK LLC,1550 COURT PL ,LIQUOR - TASTINGS,LICENSE ISSUED - ACTIVE,11/6/2025 12:00:00 AM,11/6/2026 12:00:00 AM,224503.0,1550 Court Pl,Denver,CO,0,10,6.0,1702.0,3143568.0,1695461.0,53db2769-2121-4949-96cf-0e8d6e87c232,CBD,D-C,3143568.00006723,1695460.99995038,-104.98947009212748,39.74173725706013
6379,MILE HIGH LIQUORS,1648 N FEDERAL BLVD ,LIQUOR - STORE,LICENSE ISSUED - ACTIVE,3/10/2026 11:35:42 AM,1/21/2027 12:00:00 AM,53809.0,1648 N Federal Blvd,Denver,CO,80204,3,1.0,800.0,3133632.0,1695935.0,3d3f3b27-bd4f-43fa-98d6-9f71a4da99fc,Sun Valley,C-MX-5,3133631.99992615,1695934.99998663,-105.02479316862357,39.74318645556525
6381,MARCZYK FINE WINES,770 E 17TH AVE ,LIQUOR - STORE,LICENSE ISSUED - ACTIVE,12/12/2025 2:53:58 PM,12/11/2026 12:00:00 AM,172063.0,770 E 17th Ave,Denver,CO,0,10,6.0,2602.0,3146814.0,1695936.0,cbaa6251-3b9a-4e1f-b62b-b4687657eba6,North Capitol Hill,C-MS-5,3146814.0001369,1695935.99998464,-104.97791781275579,39.74299057274692
6415,MARCZYK FINE WINES,770 E 17TH AVE ,LIQUOR - TASTINGS,LICENSE ISSUED - ACTIVE,11/14/2025 12:00:00 AM,11/14/2026 12:00:00 AM,172063.0,770 E 17th Ave,Denver,CO,0,10,6.0,2602.0,3146818.0,1695981.0,3e6195d3-7303-4ae0-b44f-2283cf702ee6,North Capitol Hill,C-MS-5,3146818.0001289,1695980.99989463,-104.97790266913096,39.74311404228451
6457,SEVENTEETH STREET LIQUORS,2001 E 17TH AVE ,LIQUOR - STORE,LICENSE ISSUED - ACTIVE,12/11/2025 8:04:10 AM,12/21/2026 12:00:00 AM,260560.0,2001 E 17th Ave,Denver,CO,0,10,6.0,3102.0,3150931.0,1696100.0,bb6b4356-a19d-44d5-99e3-8bec373dad9b,City Park West,G-MS-3,3150931.00010498,1696099.99998471,-104.96327432600832,39.743374919138276
6801,CHAMPA FINE WINE & LIQUORS,1600 CHAMPA ST ,LIQUOR - STORE,LICENSE ISSUED - ACTIVE,4/18/2025 3:06:13 PM,7/7/2026 12:00:00 AM,270358.0,1600 Champa St,Denver,CO,0,10,6.0,1702.0,3142378.0,1697203.0,f78e122c-bc26-47b5-8830-ea4924c6ad6a,CBD,D-TD,3142378.00015065,1697203.0000753,-104.99366713602814,39.746537638018495
6822,"ROCKY MOUNTAIN LEE, LLC",1936 N PENNSYLVANIA ST ,LIQUOR - TASTINGS,LICENSE ISSUED - ACTIVE,1/6/2026 12:00:00 AM,1/6/2027 12:00:00 AM,166504.0,1936 N Pennsylvania St,Denver,CO,0,10,6.0,2602.0,3145958.0,1697233.0,424e48b1-1741-49d0-8205-d576be25c42f,North Capitol Hill,R-4-X,3145957.99988039,1697233.0000153,-104.98093539842272,39.74656452887093
6846,UPTOWN WINES BEER & SPIRITS,1936 PENNSYLVANIA ST ,LIQUOR - STORE,LICENSE ISSUED - ACTIVE,6/16/2025 9:56:53 AM,6/24/2026 12:00:00 AM,166504.0,1936 N Pennsylvania St,Denver,CO,0,10,6.0,2602.0,3146086.0,1697343.0,07990e4d-32b9-484b-be45-cee61a0c868a,North Capitol Hill,R-4-X,3146085.99995248,1697343.00012338,-104.9804779697357,39.7468644895164
7003,URBAN PROVISIONS,2031 N BRYANT ST ,LIQUOR - STORE,LICENSE ISSUED - ACTIVE,2/12/2026 10:28:09 AM,12/11/2026 12:00:00 AM,,,,,80211,1,1.0,600.0,3135132.0,1697757.0,f53b7dcd-166a-4ebf-a549-979fa8d384db,Jefferson Park,C-MX-5,3135131.9998789,1697756.99995154,-105.01942486486062,39.74816651204427
7006,URBAN PROVISIONS LLC,2031 N BRYANT ST ,LIQUOR - TASTINGS,LICENSE ISSUED - ACTIVE,11/17/2025 12:00:00 AM,11/17/2026 12:00:00 AM,191577.0,2031 N Bryant St,Denver,CO,0,1,1.0,600.0,3135132.0,1697757.0,f750fb24-bf70-48c2-a0e9-78010f018a4d,Jefferson Park,C-MX-5,3135131.9998789,1697756.99995154,-105.01942486486062,39.74816651204427
7028,WASHINGTON STREET LIQUORS,757 E 20TH AVE #300,LIQUOR - STORE,LICENSE ISSUED - ACTIVE,11/6/2025 9:53:50 PM,8/21/2026 12:00:00 AM,,,,,80205,9,6.0,2402.0,3146982.0,1697803.0,ed9c34d2-8b04-4319-a3c6-aea8afe0362c,Five Points,B-2,3146982.00012898,1697802.99985954,-104.97728220399546,39.74811315792119
7101,BLAKE STREET LIQUORS,1432 BLAKE ,LIQUOR - STORE,LICENSE ISSUED - ACTIVE,8/5/2025 1:24:44 PM,5/4/2026 12:00:00 AM,170119.0,1432 Blake St,Denver,CO,80202,10,6.0,1701.0,3140367.0,1698066.0,cb4c30e9-d8df-40a0-89b7-c1bed242ca98,Union Station,D-LD,3140366.99990757,1698065.99998972,-105.00080176200902,39.74893727523181
7136,DOWNING STREET LIQUORS,1038 E 22ND AVE ,LIQUOR - STORE,LICENSE ISSUED - ACTIVE,12/8/2025 1:29:30 PM,12/1/2026 12:00:00 AM,246280.0,1038 E 22nd Ave,Denver,CO,0,9,6.0,2402.0,3148020.0,1698256.0,f8d0236d-3c03-48b9-b779-439e959c17a5,Five Points,PUD,3148020.00002147,1698255.9999378,-104.97358147186517,39.74934026597065
7260,GRAPE EXPECTATIONS WINE & SPIRITS,2270 N KEARNEY ST ,LIQUOR - STORE,LICENSE ISSUED - ACTIVE,5/11/2025 3:00:42 PM,5/1/2026 12:00:00 AM,245879.0,2270 N Kearney St,Denver,CO,0,9,2.0,4202.0,3163889.0,1698751.0,e39da737-4c32-407b-9cc5-8cd924d9a92c,South Park Hill,U-MX-2,3163889.00010756,1698750.99993205,-104.91713511767362,39.75043315399723
7282,TOAST! WINE AND SPIRITS,3828 W 23RD AVE ,LIQUOR - STORE,LICENSE ISSUED - ACTIVE,5/14/2025 6:45:20 PM,5/17/2026 12:00:00 AM,246293.0,3828 W 23rd Ave,Denver,CO,0,1,1.0,502.0,3130004.0,1698799.0,e511ce0b-1399-4d8a-bbb5-e891d0cf6a03,Sloan Lake,U-MS-2X,3130003.99996431,1698798.99983604,-105.03764258748748,39.75110004390506
7333,ONEIDA LIQUOR,2259 N ONEIDA ,LIQUOR - STORE,LICENSE ISSUED - ACTIVE,7/14/2025 2:22:22 PM,7/27/2026 12:00:00 AM,181853.0,2259 N Oneida St,Denver,CO,0,8,2.0,4202.0,3166355.0,1698889.0,f9b13a8b-a031-4eb4-b1c0-c76fd201a318,South Park Hill,E-MX-2,3166355.00009681,1698888.99998413,-104.9083619340997,39.75076822502818
7368,CALIFORNIA ST LIQUORS,2260 CALIFORNIA ST ,LIQUOR - STORE,LICENSE ISSUED - ACTIVE,1/20/2026 8:55:57 AM,3/10/2027 12:00:00 AM,54950.0,2260 California St,Denver,CO,80205,9,6.0,2403.0,3145189.0,1698989.0,90d1e842-9681-4246-ac52-1ff922a03a8b,Five Points,D-AS-12+,3145189.00010607,1698989.00011222,-104.9836346078334,39.751397078334804
7369,SPINELLI'S SPECIALTY WINE & SPIRITS,4615 E 23RD AVE ,LIQUOR - STORE,LICENSE ISSUED - ACTIVE,11/7/2025 1:51:37 PM,9/6/2026 12:00:00 AM,177229.0,4615 E 23rd Ave,Denver,CO,0,9,2.0,4103.0,3159304.0,1698994.0,a25fdad3-0156-489d-a7fa-d281d7693314,North Park Hill,U-MS-2X,3159304.00009122,1698994.00010222,-104.933435674128,39.75117985434715
7626,PARKSIDE LIQUORS,2915 W 25TH AVE ,LIQUOR - STORE,LICENSE ISSUED - ACTIVE,11/10/2025 1:34:13 PM,11/7/2026 12:00:00 AM,459168.0,2915 W 25th Ave,Denver,CO,0,1,1.0,600.0,3133834.0,1699775.0,9013b460-6f06-40cc-851c-2f9d5d1203a8,Jefferson Park,G-MS-3,3133833.99985023,1699774.99985255,-105.02400330491943,39.75372503402254
7759,WINE DISPENSARY,1590 LITTLE RAVEN ST UNIT 175,LIQUOR - STORE,LICENSE ISSUED - ACTIVE,1/21/2026 7:05:19 AM,11/13/2026 12:00:00 AM,270138.0,1590 Little Raven St Unit 175,Denver,CO,0,1,6.0,1701.0,3139156.0,1700131.0,2aeea3fd-af30-42c5-aec6-7663ac0f4d7a,Union Station,PUD,3139156.00003298,1700131.0001248,-105.00506844144587,39.75462424279745
7879,MR. B'S WINE & SPIRITS,2101 MARKET ST SUITE A,LIQUOR - STORE,LICENSE ISSUED - ACTIVE,8/12/2025 2:09:03 PM,8/26/2026 12:00:00 AM,43442.0,2101 Market St,Denver,CO,0,9,6.0,1600.0,3142826.0,1700311.0,7c01c7c7-c751-4b66-acb1-fa0014916bb3,Five Points,R-MU-30,3142825.99991082,1700311.00009288,-104.99201216264889,39.755062760782685
7947,MY WINE & SPIRITS SHOPPE,2741 WELTON ST ,LIQUOR - STORE,LICENSE ISSUED - ACTIVE,12/30/2025 1:11:29 PM,12/22/2027 12:00:00 AM,43039.0,2741 Welton St,Denver,CO,0,9,2.0,2403.0,3146901.0,1700525.0,fa4d231f-f566-4be8-8217-5b0f55274304,Five Points,C-MX-5,3146900.9999629,1700524.99999297,-104.97751458752015,39.75558678019321
8001,FAIRFAX LIQUORS,2801 FAIRFAX ST ,LIQUOR - STORE,LICENSE ISSUED - ACTIVE,6/23/2025 10:47:30 AM,5/2/2026 12:00:00 AM,261493.0,2801 N Fairfax St,Denver,CO,0,9,2.0,4103.0,3160704.0,1701001.0,24974a58-1724-4850-af96-5c49a965d1d3,North Park Hill,E-MS-2,3160703.9999159,1701001.00002521,-104.92841179892399,39.75666530690684
8042,CORKS,1620 PLATTE UNIT B,LIQUOR - STORE,LICENSE ISSUED - ACTIVE,8/8/2025 9:53:11 AM,8/28/2026 12:00:00 AM,270154.0,1620 Platte St Unit B,Denver,CO,0,1,1.0,1102.0,3138440.0,1701190.0,cc4231c6-961e-49e6-b387-f27c7298a199,Highland,C-MX-5,3138440.00015265,1701189.99997529,-105.00759454955427,39.75754205519672
8048,TOWN LIQUORS,2817 DOWNING ST ,LIQUOR - STORE,LICENSE ISSUED - ACTIVE,11/20/2025 10:05:16 AM,11/20/2026 12:00:00 AM,168412.0,2817 N Downing St,Denver,CO,0,9,2.0,2403.0,3147995.0,1701196.0,e7ae4d1e-7f13-4f88-b585-9859f2ae9340,Five Points,C-MX-5,3147995.00007148,1701195.9999633,-104.97360979627493,39.75741144619766
8081,AMENDMENT TWENTY ONE,2548 15TH ,LIQUOR - STORE,LICENSE ISSUED - ACTIVE,4/10/2025 1:23:37 PM,5/9/2026 12:00:00 AM,352921.0,2548 15th St,Denver,CO,0,1,1.0,402.0,3137329.0,1701364.0,d03fc2e3-8d30-403a-82f5-6834fb0dfafa,Highland,U-MS-3,3137329.00007807,1701363.99995539,-105.01154276710858,39.75803617883336
8090,SKY LINE LIQUOR STORE,2865 COLORADO BLVD ,LIQUOR - STORE,LICENSE ISSUED - ACTIVE,3/25/2026 9:24:21 AM,5/11/2027 12:00:00 AM,39244.0,2865 N Colorado Blvd,Denver,CO,80207,9,2.0,3603.0,3157169.0,1701370.0,db0e9280-5c45-4639-9995-b0400f9bc12c,Skyland,E-MX-3,3157169.00009614,1701369.99994338,-104.9409766059736,39.75773865443826
8115,QUARTERBACK LIQUOR,4426 W 29TH AVE ,LIQUOR - STORE,LICENSE ISSUED - ACTIVE,3/23/2026 9:46:06 AM,5/21/2027 12:00:00 AM,186646.0,4426 W 29th Ave,Denver,CO,0,1,1.0,501.0,3128055.0,1701451.0,9d576c67-b21c-4325-ba09-dcfc213c36f4,Sloan Lake,U-MX-2,3128054.99992532,1701451.00010946,-105.04452677435133,39.758407273298566
8132,THE GRAPE LEAF,7340 E 29TH AVE ,LIQUOR - STORE,LICENSE ISSUED - ACTIVE,7/1/2025 8:01:55 PM,6/24/2026 12:00:00 AM,172347.0,7340 E 29th Ave,Denver,CO,0,8,5.0,4105.0,3168002.0,1701507.0,63dc50f1-65c9-4524-b6ab-5f0dbbd19d35,Central Park,C-MU-20,3168002.00008364,1701506.99999747,-104.90244333842755,39.75792543631367
8134,STAPLETON TOWN CENTER LIQUORS INC,7340 E 29TH AVE ,LIQUOR - TASTINGS,LICENSE ISSUED - ACTIVE,6/24/2025 12:00:00 AM,6/24/2026 12:00:00 AM,172347.0,7340 E 29th Ave,Denver,CO,0,8,5.0,4105.0,3168002.0,1701507.0,2c8ef0ca-dbc7-474f-9eaf-7a8dc8943b78,Central Park,C-MU-20,3168002.00008364,1701506.99999747,-104.90244333842755,39.75792543631367
8150,SKYE LIQUOR,2907 N INCA ST ,LIQUOR - STORE,LICENSE ISSUED - ACTIVE,1/5/2026 10:14:55 AM,1/26/2027 12:00:00 AM,354341.0,2907 N Inca St,Denver,CO,80202,9,6.0,1600.0,3140976.0,1701581.0,17c978c3-b106-4dca-9962-2e07e2353463,Five Points,R-MU-30,3140976.00000189,1701580.99984947,-104.9985669730652,39.7585773337791
8194,JOE'S LIQUOR STORE,2644 LARIMER ST ,LIQUOR - STORE,LICENSE ISSUED - ACTIVE,6/9/2025 11:42:09 AM,8/4/2026 12:00:00 AM,,,,,80205,9,2.0,1600.0,3144955.0,1701793.0,b52ca7b3-e130-4c03-b917-bcbdb95eb975,Five Points,PUD-G,3144954.99991789,1701793.00008163,-104.98441021568395,39.75909816661595
8261,CENTRAL PARK FINE WINE AND SPIRITS,2955 N ULSTER ST UNIT 101,LIQUOR - STORE,LICENSE ISSUED - ACTIVE,7/11/2025 2:13:02 PM,4/23/2026 12:00:00 AM,261723.0,2955 N Ulster St Unit 101,Denver,CO,80238,8,5.0,4105.0,3170200.0,1702002.0,aaa95e8c-b85e-4812-a585-169ffea54cea,Central Park,R-MU-30,3170199.99995273,1702001.99999171,-104.89461389647118,39.75924433380756
8268,BUBBLES AND BUBBLES LLC,2955 N ULSTER ST UNIT 101,LIQUOR - TASTINGS,LICENSE ISSUED - ACTIVE,12/8/2025 12:00:00 AM,12/8/2026 12:00:00 AM,261723.0,2955 N Ulster St Unit 101,Denver,CO,80238,8,5.0,4105.0,3170200.0,1702002.0,81ec18af-a2a5-46e9-b9a6-0ce88de3644c,Central Park,R-MU-30,3170199.99995273,1702001.99999171,-104.89461389647118,39.75924433380756
8327,OLD LIQUOR,3010 N SPEER BLVD ,LIQUOR - STORE,LICENSE ISSUED - ACTIVE,2/17/2026 8:58:44 AM,3/28/2027 12:00:00 AM,46919.0,3010 N Speer Blvd,Denver,CO,0,1,1.0,303.0,3133369.0,1702379.0,535ac577-7bd6-42b3-956d-cd00802bd5bc,West Highland,U-MX-3,3133369.00012407,1702378.99989389,-105.02560874018737,39.76088013037255
8442,GENO'S LIQUORS DENVER,2336 W 32ND AVE ,LIQUOR - STORE,LICENSE ISSUED - ACTIVE,10/27/2025 1:08:02 PM,12/4/2026 12:00:00 AM,250802.0,2336 W 32nd Ave,Denver,CO,0,1,1.0,402.0,3136196.0,1702762.0,43600a2c-753d-4bdf-b723-8063788ad84b,Highland,U-MS-3,3136196.00004748,1702762.00011213,-105.01554607353307,39.761890573447424
8452,HJM WINE & SPIRITS,2016 W 32ND AVE ,LIQUOR - STORE,LICENSE ISSUED - ACTIVE,12/10/2025 7:59:25 AM,2/20/2027 12:00:00 AM,185079.0,2016 W 32nd Ave,Denver,CO,0,1,1.0,402.0,3137284.0,1702778.0,c3a8a092-e780-4d37-bd96-319e52bf9838,Highland,C-MX-3,3137283.99983998,1702778.00008014,-105.01167578862481,39.761918504874416
8493,HKB LLC,3601 W 32ND AVE ,LIQUOR - TASTINGS,LICENSE ISSUED - ACTIVE,10/16/2025 12:00:00 AM,10/16/2026 12:00:00 AM,48967.0,3601 W 32nd Ave,Denver,CO,0,1,1.0,303.0,3130801.0,1702863.0,dd84262a-6039-451e-9dd4-cc5fdf03f214,West Highland,U-MS-3,3130801.00001073,1702862.99991013,-105.03473409458856,39.762245248915896
8513,MONDO VINO,3601 W 32ND AVE ,LIQUOR - STORE,LICENSE ISSUED - ACTIVE,9/10/2025 1:24:13 PM,8/5/2026 12:00:00 AM,48967.0,3601 W 32nd Ave,Denver,CO,0,1,1.0,303.0,3130741.0,1702907.0,75a89a96-916f-46f9-be4e-a5b896242641,West Highland,U-MS-3,3130741.00013073,1702907.00015022,-105.0349467123349,39.76236688020697
8552,CORKS - LOHI,3244 N NAVAJO ST SUITE 102,LIQUOR - STORE,LICENSE ISSUED - ACTIVE,2/19/2025 3:23:59 PM,4/18/2026 12:00:00 AM,458366.0,3244 N Navajo St,Denver,CO,0,1,1.0,1102.0,3139446.0,1703124.0,c0af0a85-b2bb-4a3a-a3fa-4a470eed3f24,Highland,C-MX-5,3139446.00010915,1703124.0000443,-105.00397890644973,39.76283617613681
8569,RINO GROG SHOP,3047 LARIMER ST UNIT 101,LIQUOR - STORE,LICENSE ISSUED - ACTIVE,7/9/2025 1:30:17 PM,6/14/2026 12:00:00 AM,32572577.0,3047 Larimer St Unit 101,Denver,CO,0,9,2.0,1600.0,3146251.0,1703244.0,1f4236d2-55b3-4529-bf2e-af3e69d030e9,Five Points,I-MX-3,3146250.99995056,1703244.00013238,-104.97977102500246,39.763061107975126
8633,ECONO LIQUORS,3330 DOWNING ST ,LIQUOR - STORE,LICENSE ISSUED - ACTIVE,1/14/2026 2:33:15 PM,11/29/2026 12:00:00 AM,40682.0,3330 N Downing St,Denver,CO,0,9,2.0,3601.0,3148242.0,1703575.0,281aa057-7694-468a-9d4f-1bd1619ca691,Cole,C-MS-5,3148241.99990556,1703575.00012656,-104.97268216914212,39.76393824176152
8693,JIM'S LIQUOR,3101 E BRUCE RANDOLPH AVE ,LIQUOR - STORE,LICENSE ISSUED - ACTIVE,7/9/2025 8:41:31 PM,8/28/2026 12:00:00 AM,246500.0,3101 E Bruce Randolph Ave,Denver,CO,0,9,2.0,3602.0,3154354.0,1703848.0,d1fb03b9-93bd-4c07-8cde-b7b20d1b01a5,Clayton,U-MX-2X,3154354.00014873,1703847.99990863,-104.95093556673524,39.764588267853696
8695,ROYAL WINE & SPIRITS,2239 E BRUCE RANDOLPH AVE ,LIQUOR - STORE,LICENSE ISSUED - ACTIVE,1/29/2026 9:15:05 AM,3/18/2027 12:00:00 AM,179732.0,2239 E Bruce Randolph Ave,Denver,CO,0,9,2.0,3601.0,3151808.0,1703862.0,34abc761-b064-45f9-a0bc-17c698eaa9f8,Cole,U-MS-2,3151807.9999914,1703861.99988063,-104.95999162770862,39.76466859364601
8734,PROOF WINE & SPIRITS,3360 LARIMER ST ,LIQUOR - STORE,LICENSE ISSUED - ACTIVE,10/2/2025 8:54:17 AM,9/15/2026 12:00:00 AM,271543.0,3360 Larimer St,Denver,CO,0,9,2.0,1600.0,3147369.0,1704252.0,53481694-4e85-4c96-820c-6bb531f3e37b,Five Points,I-MX-3,3147369.00001115,1704252.00008488,-104.97577358828923,39.76581057983385
8739,"SUR LIE, LLC",3360 LARIMER ST ,LIQUOR - TASTINGS,LICENSE ISSUED - ACTIVE,10/30/2025 12:00:00 AM,10/30/2026 12:00:00 AM,271543.0,3360 Larimer St,Denver,CO,0,9,2.0,1600.0,3147388.0,1704264.0,1306eae2-f1c2-4fa6-b5c6-d45d7446419f,Five Points,I-MX-3,3147387.99997315,1704264.00006089,-104.97570575607602,39.7658432205904
8763,LUCKY LOO'S LIQUOR,7305 E 35TH AVE UNIT 120,LIQUOR - STORE,LICENSE ISSUED - ACTIVE,9/15/2025 12:29:01 PM,11/2/2026 12:00:00 AM,264049.0,7305 E 35th Ave Unit 120,Denver,CO,0,8,5.0,4105.0,3168223.0,1704390.0,d1ff956b-4ead-4cfa-b92c-7dd8008fb579,Central Park,C-MU-20,3168222.99996974,1704390.00013697,-104.90158975406351,39.76583568771056
8794,VOLUME RATE LIQUORS,7805 E 35TH AVE ,LIQUOR - STORE,LICENSE ISSUED - ACTIVE,6/23/2025 2:53:08 AM,6/5/2026 12:00:00 AM,167556.0,7805 E 35th Ave,Denver,CO,80238,8,5.0,4105.0,3169222.0,1704538.0,aff3bf63-0b19-4ce2-bf61-124bdf29fc91,Central Park,C-MU-20,3169221.99994023,1704537.99984096,-104.89803268272965,39.766223848949124
8800,RINO FINE WINE & SPIRITS,3083 N BRIGHTON 102,LIQUOR - STORE,LICENSE ISSUED - ACTIVE,2/26/2026 11:35:29 AM,4/15/2027 12:00:00 AM,519601.0,3083 N Brighton Blvd Ste 102,Denver,CO,0,9,6.0,1600.0,3144928.0,1704549.0,f0073185-276e-4d7d-9508-0b9e68f896b8,Five Points,R-MU-30,3144927.9999719,1704549.00014704,-104.98445061962319,39.76666423807089
8862,HIGHLANDS WINE AND LIQUOR STORE,4650 W 38TH AVE UNIT 100 BLDG L,LIQUOR - STORE,LICENSE ISSUED - ACTIVE,12/11/2025 9:14:11 AM,2/12/2027 12:00:00 AM,256362.0,4650 W 38th Ave Unit 100,Denver,CO,80212,1,1.0,302.0,3127286.0,1705102.0,d62c3009-403a-485b-bc04-21edeaed1f69,West Highland,PUD,3127286.00015098,1705102.0000253,-105.04719722488639,39.768440425754136
8878,FEDERAL LIQUORS,3755 N FEDERAL BLVD ,LIQUOR - STORE,LICENSE ISSUED - ACTIVE,12/5/2025 1:29:13 PM,1/14/2027 12:00:00 AM,46139.0,3755 N Federal Blvd,Denver,CO,80211,1,1.0,303.0,3133339.0,1705169.0,7a9a7216-df54-4bf7-b05d-396e725c04a5,West Highland,U-MS-5,3133338.99985598,1705168.9998913,-105.02566363297815,39.76853956001909
8906,CASK AND CRAFT,3744 TEJON ST 24 & 25,LIQUOR - STORE,LICENSE ISSUED - ACTIVE,11/20/2025 10:15:42 AM,11/24/2026 12:00:00 AM,354095.0,3744 N Tejon St,Denver,CO,0,1,1.0,1102.0,3137441.0,1705297.0,a8e367d2-a239-46d4-abdb-be9c73671366,Highland,U-MX-3,3137440.99985406,1705296.99996339,-105.01106912176857,39.76883123986922
8980,PAT'S LIQUORS,2705 W 38TH AVE ,LIQUOR - STORE,LICENSE ISSUED - ACTIVE,10/14/2025 8:50:42 AM,1/19/2027 12:00:00 AM,246414.0,2705 W 38th Ave,Denver,CO,80211,1,1.0,401.0,3134713.0,1705497.0,5016e722-e242-4442-9cff-279471da47c0,Sunnyside,U-MX-2,3134713.00006072,1705496.99989146,-105.02076973881184,39.76942017556027
9011,CANA LIQUOR,3165 W 38TH ,LIQUOR - STORE,LICENSE ISSUED - ACTIVE,10/15/2025 9:10:54 AM,11/26/2026 12:00:00 AM,351061.0,3165 W 38th Ave,Denver,CO,80211,1,1.0,301.0,3132349.0,1705577.0,c92b2653-b2de-4ff7-8cb8-691ce180bc34,Berkeley,U-MS-3,3132348.99986748,1705577.00005955,-105.02917784545352,39.769673722040075
9022,VINNY'S LIQUOR,5201 E 38TH AVE ,LIQUOR - STORE,LICENSE ISSUED - ACTIVE,10/24/2025 7:34:26 AM,11/9/2026 12:00:00 AM,10972.0,5201 E 38th Ave,Denver,CO,80207,8,2.0,4101.0,3161166.0,1705671.0,1b4bbc3d-fc1f-4d3a-a3a9-82af644bfdf9,Northeast Park Hill,I-MX-3,3161165.99997614,1705670.99987155,-104.92666378530488,39.76947714522113
9050,WALNUT LIQUORS,3729 WALNUT ST ,LIQUOR - STORE,LICENSE ISSUED - ACTIVE,9/24/2025 7:37:23 AM,5/6/2026 12:00:00 AM,42112.0,3729 Walnut St,Denver,CO,80205,9,2.0,1600.0,3148196.0,1705777.0,498ad44e-a665-4ea4-9e29-07d6e970636c,Five Points,C-MX-12,3148195.99999756,1705776.99998763,-104.97280033866144,39.769983794631514
9148,DENVER WINE MERCHANT,3911 FOX ST ,LIQUOR - STORE,LICENSE ISSUED - ACTIVE,11/24/2025 3:26:44 PM,11/9/2026 12:00:00 AM,451282.0,3911 N Fox St,Denver,CO,0,9,1.0,1500.0,3141948.0,1706047.0,a99bec2c-5916-4d5d-bfbc-06ba2210261e,Globeville,C-MS-12,3141948.00002639,1706047.0001038,-104.99502147080956,39.77082242321641
9154,DENVER WINE MERCHANT LLC,3911 N FOX ST ,LIQUOR - TASTINGS,LICENSE ISSUED - ACTIVE,8/6/2025 12:00:00 AM,8/6/2026 12:00:00 AM,451282.0,3911 N Fox St,Denver,CO,0,9,1.0,1500.0,3141948.0,1706047.0,f5001b73-584c-4a80-888f-5c2e5bbceffa,Globeville,C-MS-12,3141948.00002639,1706047.0001038,-104.99502147080956,39.77082242321641
9282,VIEJO LIQUOR,3935 QUEBEC ST ,LIQUOR - STORE,LICENSE ISSUED - ACTIVE,5/11/2025 4:07:07 PM,7/14/2026 12:00:00 AM,11214.0,3935 N Quebec St,Denver,CO,0,8,2.0,4102.0,3167591.0,1706499.0,dc8e38b5-b0d4-402b-b5fd-aea0a1b603ef,Northeast Park Hill,I-MX-5,3167590.9999214,1706498.99985597,-104.90378863236198,39.77163658407892
9340,ANGEL'S LIQUOR,6500 E SMITH RD UNIT A,LIQUOR - STORE,LICENSE ISSUED - ACTIVE,11/10/2025 9:55:57 AM,11/15/2026 12:00:00 AM,11242.0,6500 E Smith Rd,Denver,CO,80207,8,2.0,4102.0,3165217.0,1706881.0,11016fd7-dee2-4919-9b40-ffa3b171e4dc,Northeast Park Hill,PUD,3165217.00007623,1706881.00007622,-104.91222519740874,39.77272769313213
9377,DNC LIQUOR,16221 E 40TH AVE UNIT E,LIQUOR - STORE,LICENSE ISSUED - ACTIVE,12/18/2025 11:12:43 AM,2/18/2027 12:00:00 AM,270012.0,16221 E 40th Ave Unit E,Denver,CO,0,11,5.0,8303.0,3197151.0,1707318.0,a9db7483-0ab8-46a2-b576-080650fa3691,Gateway - Green Valley Ranch,GTWY,3197150.9998564,1707317.99985838,-104.79860917726542,39.773305305573935
9395,TOM'S GATEWAY LIQUOR,15470 E ANDREWS DR UNIT 102,LIQUOR - STORE,LICENSE ISSUED - ACTIVE,9/4/2025 11:14:17 PM,10/17/2026 12:00:00 AM,158561.0,15470 E Andrews Dr,Denver,CO,0,11,5.0,8303.0,3194474.0,1707438.0,19da0493-3491-479d-b511-a06fd6d1be27,Gateway - Green Valley Ranch,GTWY,3194473.99996106,1707437.99994646,-104.80812933729163,39.7736910712255
9435,SMALL BATCH LIQUORS,4340 TENNYSON ST ,LIQUOR - STORE,LICENSE ISSUED - ACTIVE,2/5/2026 9:42:20 AM,1/23/2027 12:00:00 AM,28856.0,4340 N Tennyson St,Denver,CO,80212,1,1.0,301.0,3128263.0,1707850.0,f1dab99f-128f-4b5f-96c5-c28a3ec9923f,Berkeley,U-MX-3,3128262.9998374,1707850.00010672,-105.04367263518635,39.775970695906395
9480,44TH AVE LIQUOR,2300 W 44TH AVE ,LIQUOR - STORE,LICENSE ISSUED - ACTIVE,1/15/2026 2:34:37 PM,1/8/2027 12:00:00 AM,32670.0,2300 W 44th Ave,Denver,CO,0,1,1.0,401.0,3136314.0,1708008.0,15f42228-a864-4584-b005-4235197f6957,Sunnyside,U-MS-3,3136314.00013956,1708008.00011879,-105.0150267364335,39.776289928136826
9504,44TH CORNER LIQUOR,3007 W 44TH AVE ,LIQUOR - STORE,LICENSE ISSUED - ACTIVE,12/23/2025 2:04:35 PM,10/12/2026 12:00:00 AM,246404.0,3007 W 44th Ave,Denver,CO,0,1,1.0,102.0,3133360.0,1708167.0,39c0a810-d60f-4637-8051-c4304afa7958,Berkeley,U-MS-3,3133360.00014207,1708167.00012888,-105.02553322844412,39.77676922813768
9505,GLOBE LIQUORS,4915 WASHINGTON ST ,LIQUOR - STORE,LICENSE ISSUED - ACTIVE,9/29/2025 11:13:52 AM,12/16/2026 12:00:00 AM,246404.0,3007 W 44th Ave,Denver,CO,0,1,1.0,102.0,3133360.0,1708167.0,a26f50dc-b728-47b4-af08-37ab909c249d,Berkeley,U-MS-3,3133360.00014207,1708167.00012888,-105.02553322844412,39.77676922813768
9514,SUNSHINE LIQUORS,4300 JOSEPHINE ST ,LIQUOR - STORE,LICENSE ISSUED - ACTIVE,12/12/2025 2:57:08 PM,2/13/2027 12:00:00 AM,246412.0,4300 N Josephine St,Denver,CO,0,9,2.0,3500.0,3152321.0,1708189.0,c8657d25-44c5-424e-9a5f-008791eb6ede,Elyria Swansea,E-TU-B,3152320.99994965,1708189.00008488,-104.95807502146093,39.776538445591854
9524,SINGER'S LIQUOR,3649 W 44TH AVE ,LIQUOR - STORE,LICENSE ISSUED - ACTIVE,8/8/2025 2:02:00 PM,8/4/2026 12:00:00 AM,261485.0,3649 W 44th Ave,Denver,CO,80211,1,1.0,102.0,3130544.0,1708235.0,6d15249d-c2f1-410f-a0aa-626aafad9d00,Berkeley,U-MX-2,3130543.99986856,1708234.99999288,-105.03555055057055,39.776995845674655
9526,HOUSE OF SPIRITS,12244 E 44TH AVE ,LIQUOR - STORE,LICENSE ISSUED - ACTIVE,10/7/2025 9:28:24 AM,11/9/2026 12:00:00 AM,451023.0,12244 E 44th Ave,Denver,CO,0,8,5.0,8312.0,3183951.0,1708302.0,92bd1bf5-0dff-4432-9dc2-5b3365f7d02d,Montbello,B-4,3183951.00000973,1708301.99985889,-104.8455430252558,39.77627690138281
9553,PEAK BEVERAGE,4375 N BRIGHTON BLVD ,LIQUOR - STORE,LICENSE ISSUED - ACTIVE,3/9/2025 7:09:15 AM,5/9/2026 12:00:00 AM,35346.0,4375 N Brighton Blvd,Denver,CO,80216,9,2.0,3500.0,3149181.0,1708783.0,7a518b31-60d0-48e6-a93e-0279f9501f4c,Elyria Swansea,I-MX-8,3149180.99999607,1708782.99988113,-104.9692338543903,39.77821994725877
9582,PEPE'S CORNER LIQUOR,535 E 45TH AVE ,LIQUOR - STORE,LICENSE ISSUED - ACTIVE,6/23/2025 4:32:27 PM,7/10/2026 12:00:00 AM,34304.0,535 E 45th Ave,Denver,CO,80216,9,1.0,1500.0,3145988.0,1708870.0,04fedd20-e209-457b-bc14-26085a1c3a0e,Globeville,E-MX-2,3145988.00014848,1708870.00003521,-104.98059210293282,39.778509437901924
9590,TEJON   LIQUORS,4560 N TEJON ST ,LIQUOR - STORE,LICENSE ISSUED - ACTIVE,11/24/2025 2:27:28 PM,11/28/2026 12:00:00 AM,32436.0,4560 N Tejon St,Denver,CO,80211,1,1.0,202.0,3137455.0,1709062.0,e02970dd-48da-4dd6-b9d0-a9a0a382de9c,Sunnyside,U-SU-C,3137455.00015414,1709061.9999793,-105.01094721733939,39.779166519802736
9623,SUNNYSIDE DRUG INC,4600 LIPAN ST ,LIQUOR - STORE,LICENSE ISSUED - ACTIVE,5/28/2025 11:45:17 AM,5/11/2026 12:00:00 AM,,,,,80211,1,1.0,202.0,3140108.0,1709525.0,9a633b7b-be3c-4d70-9387-8915a2dea473,Sunnyside,I-A,3140108.00009748,1709525.00003755,-105.00149922569815,39.780397935954575
9679,JOE'S LIQUOR STORE,4705 WASHINGTON ST ,LIQUOR - STORE,LICENSE ISSUED - ACTIVE,2/11/2026 1:08:47 PM,1/27/2027 12:00:00 AM,,,,,80216,9,1.0,1500.0,3146442.0,1710140.0,0cdb6ba2-9b91-45c7-b217-7b9910bb0a87,Globeville,U-MX-3,3146441.99989665,1710140.00011988,-104.97895094568713,39.78198862578214
9683,CIANCIO'S LIQUORS,2223 E 47TH AVE ,LIQUOR - STORE,LICENSE ISSUED - ACTIVE,2/10/2026 1:55:51 PM,12/17/2026 12:00:00 AM,246563.0,2223 E 47th Ave,Denver,CO,0,9,2.0,3500.0,3151554.0,1710191.0,03796c1e-e780-4c9e-b7ae-cb8fde0873f1,Elyria Swansea,E-TU-B,3151553.99984322,1710191.00001788,-104.96076149892983,39.78204673448241
9694,GREEN VALLEY LIQUOR,4650 N TOWER 102,LIQUOR - STORE,LICENSE ISSUED - ACTIVE,1/7/2026 12:41:01 PM,2/5/2027 12:00:00 AM,32565502.0,4650 N Tower Rd Unit 102,Denver,CO,0,11,5.0,8303.0,3204733.0,1710209.0,2a18a6f5-020b-4be1-970e-05d9b28a347b,Gateway - Green Valley Ranch,B-3,3204733.00011231,1710208.99998188,-104.77155387176482,39.78107759702185
9699,MONTBELLO LIQUORS,4632 PEORIA ST ,LIQUOR - STORE,LICENSE ISSUED - ACTIVE,1/23/2026 9:51:39 AM,3/8/2027 12:00:00 AM,160895.0,4690 N Peoria St,Denver,CO,0,8,5.0,8312.0,3183683.0,1710338.0,8193dc41-486c-4f20-8368-947d45db76d8,Montbello,B-8,3183682.99988957,1710338.00005196,-104.84644436704019,39.78187124745297
9756,DIA WINE & SPIRITS,4739 N YAMPA ,LIQUOR - STORE,LICENSE ISSUED - ACTIVE,1/20/2026 8:45:58 AM,1/14/2027 12:00:00 AM,473220.0,4739 N Yampa St,Denver,CO,0,11,5.0,8303.0,3203786.0,1710740.0,bdad9ca2-cfbc-4438-8387-d18f0cb3e409,Gateway - Green Valley Ranch,C-MU-20,3203786.0000378,1710739.99990413,-104.77490810359217,39.78255603843069
9760,DIA WINE & SPIRITS,4739 N YAMPA ST ,LIQUOR - TASTINGS,LICENSE ISSUED - ACTIVE,4/7/2025 12:00:00 AM,4/7/2026 12:00:00 AM,473220.0,4739 N Yampa St,Denver,CO,0,11,5.0,8303.0,3203786.0,1710740.0,74a8e3cd-2525-4007-a936-5d2908bc54eb,Gateway - Green Valley Ranch,C-MU-20,3203786.0000378,1710739.99990413,-104.77490810359217,39.78255603843069
9761,DIA WINE & SPIRITS INC.,4739 N YAMPA ST ,LIQUOR - TASTINGS,LICENSE ISSUED - ACTIVE,3/26/2026 12:00:00 AM,3/26/2027 12:00:00 AM,473220.0,4739 N Yampa St,Denver,CO,0,11,5.0,8303.0,3203786.0,1710740.0,67c98073-3003-440b-95a7-fca9dd6bc87d,Gateway - Green Valley Ranch,C-MU-20,3203786.0000378,1710739.99990413,-104.77490810359217,39.78255603843069
9770,CHAFFEE PARK LIQUORS,4836 N PECOS ST ,LIQUOR - STORE,LICENSE ISSUED - ACTIVE,3/11/2026 9:30:01 AM,4/11/2027 12:00:00 AM,176298.0,4836 N Pecos St,Denver,CO,0,1,1.0,201.0,3138921.0,1710914.0,67960709-9675-4a81-ac43-33c772a3afd5,Chaffee Park,E-MX-3,3138920.99984682,1710913.99988422,-105.00569556946844,39.78422873926415
9781,BLUE LAKE LIQUOR,4801 COLORADO BLVD UNIT C,LIQUOR - STORE,LICENSE ISSUED - ACTIVE,1/8/2026 6:20:30 AM,3/16/2027 12:00:00 AM,352367.0,4801 N Colorado Blvd Unit C,Denver,CO,80216,9,2.0,3500.0,3157051.0,1711026.0,c23f11b7-367d-4c4b-ba31-d28ae2340da9,Elyria Swansea,I-A,3157051.00000407,1711025.9999883,-104.94118504230545,39.78424772043855
9798,BUSBY LIQUORS,4900 LOWELL BLVD ,LIQUOR - STORE,LICENSE ISSUED - ACTIVE,8/11/2025 10:50:14 AM,9/29/2026 12:00:00 AM,25363.0,4900 N Lowell Blvd,Denver,CO,0,1,1.0,101.0,3130873.0,1711448.0,1a217e2e-fee4-4e94-82f1-b26d31fc8270,Regis,U-MX-3,3130872.99986672,1711448.00012855,-105.03432145887122,39.78581137438825
9799,PINEY LIQUORS,5135 N CHAMBERS RD UNIT F,LIQUOR - STORE,LICENSE ISSUED - ACTIVE,12/11/2025 8:32:27 AM,12/13/2026 12:00:00 AM,363027.0,5135 N Chambers Rd Unit F,Denver,CO,0,11,5.0,8311.0,3193411.24,1711462.54,087d25a1-fdd8-4895-8c3a-2d6b6e9d2491,Montbello,S-CC-3,3193411.23994748,1711462.54012571,-104.81180165963701,39.78476101379405
9814,5280 LIQUOR,18611 GREEN VALLEY RANCH BLVD 110,LIQUOR - STORE,LICENSE ISSUED - ACTIVE,11/14/2025 7:38:35 AM,10/2/2026 12:00:00 AM,360260.0,18611 Green Valley Ranch Blvd Unit 110,Denver,CO,80249,11,5.0,8303.0,3205652.0,1711669.0,64658e48-8868-4815-a76b-4e8b5e14b7a4,Gateway - Green Valley Ranch,C-MU-20,3205651.99991474,1711669.00001463,-104.7682423420448,39.78506515492534
9820,ACES HIGH SPIRITS,8763 E NORTHFIELD BLVD ,LIQUOR - STORE,LICENSE ISSUED - ACTIVE,10/2/2025 3:44:07 PM,1/7/2027 12:00:00 AM,495140.0,8763 E Northfield Blvd,Denver,CO,0,8,5.0,4105.0,3172413.0,1711743.0,c7d7d5a8-7ed1-4ff3-931c-37ac25a54ae3,Central Park,M-MX-5,3172413.00011989,1711742.99986663,-104.88650871549068,39.78594387723281
9824,GPM ENTERPRISE INC,8763 E NORTHFIELD BLVD ,LIQUOR - TASTINGS,LICENSE ISSUED - ACTIVE,2/23/2026 12:00:00 AM,2/23/2027 12:00:00 AM,495140.0,8763 E Northfield Blvd,Denver,CO,0,8,5.0,4105.0,3172413.0,1711743.0,11cee424-60cf-4f34-818d-82cc2cd23455,Central Park,M-MX-5,3172413.00011989,1711742.99986663,-104.88650871549068,39.78594387723281
9827,CHAMBERS PLACE LIQUOR,4856 CHAMBERS RD ,LIQUOR - STORE,LICENSE ISSUED - ACTIVE,4/2/2026 12:51:10 PM,4/26/2027 12:00:00 AM,250805.0,4856 N Chambers Rd,Denver,CO,0,11,5.0,8303.0,3194554.0,1711769.0,6c00ac23-f714-428f-a4ba-5a8e07e03748,Gateway - Green Valley Ranch,PUD,3194554.00012915,1711769.00014271,-104.80772732337249,39.78557844179759
9902,COLORADO BEVERAGE COMPANY,5080 N CENTRAL PARK BLVD ,LIQUOR - STORE,LICENSE ISSUED - ACTIVE,6/9/2025 7:39:55 PM,7/8/2026 12:00:00 AM,493440.0,5080 N Central Park Blvd,Denver,CO,0,8,5.0,4105.0,3173604.0,1713274.0,5d9ab289-f8a0-4eb2-a7ec-affe341067cf,Central Park,I-A,3173604.00003448,1713274.00008546,-104.88223390687179,39.790124487290576
9906,COLORADO BEVERAGE COMPANY,5080 N CENTRAL PARK BLVD ,LIQUOR - TASTINGS,LICENSE ISSUED - ACTIVE,12/16/2025 12:00:00 AM,12/16/2026 12:00:00 AM,493440.0,5080 N Central Park Blvd,Denver,CO,0,8,5.0,4105.0,3173604.0,1713274.0,741781fe-0937-4264-ac69-e697c1da36e9,Central Park,I-A,3173604.00003448,1713274.00008546,-104.88223390687179,39.790124487290576
9936,ALL IN ONE LIQUOR,19245 E 56TH AVE ,LIQUOR - STORE,LICENSE ISSUED - ACTIVE,2/11/2026 1:46:15 PM,4/17/2027 12:00:00 AM,32637500.0,19245 E 56th Ave,Denver,CO,0,11,5.0,8313.0,3206975.0,1716781.0,68a01263-2533-4e09-a16f-496e60f3df6a,DIA,C-MU-20,3206974.9998934,1716780.99996121,-104.76338752100848,39.799068654978065
9938,DISCOUNT LIQUOR,5680 N TOWER RD STE 100,LIQUOR - STORE,LICENSE ISSUED - ACTIVE,2/10/2026 12:19:51 PM,2/17/2027 12:00:00 AM,32668823.0,5680 N Tower Rd Ste 100,Denver,CO,0,11,5.0,8313.0,3204878.0,1716995.0,a38701c9-d643-4202-9b3a-4a69ff8fdad1,DIA,C-MU-10,3204878.0001504,1716994.9998613,-104.77084419118414,39.79970254010065
9939,TOWER LIQUORS,5910 N TOWER RD UNIT 100,LIQUOR - STORE,LICENSE ISSUED - ACTIVE,11/15/2025 1:25:10 PM,9/28/2026 12:00:00 AM,32614760.0,5910 N Tower Rd Unit 100,Denver,CO,0,11,5.0,8313.0,3204737.0,1718623.0,af074f2a-80e5-4cd5-9645-0d8cd5dee4d3,DIA,C-MU-20,3204737.00010431,1718622.99988613,-104.77129951115401,39.80417462192799
